"stop_id","stop_code","stop_name","stop_desc","stop_lat","stop_lon","zone_id","stop_url","location_type","parent_station","stop_timezone","wheelchair_boarding"
"1","","Abtsroda Sieblos","","50.506547","9.910845","1801","","0","","",""
"2","","Abtsroda Sieblos","","50.50654","9.908987","1801","","0","","",""
"3","","Abtsroda","","50.508613","9.925035","1801","","0","","",""
"4","","Abtsroda","","50.508563","9.92513","1801","","0","","",""
"5","","Abtsroda Tränkhof","","50.498842","9.893133","1801","","0","","",""
"6","","Abtsroda Tränkhof","","50.498807","9.893127","1801","","0","","",""
"7","","Allmus","","50.595265","9.813925","2068","","0","","",""
"8","","Allmus","","50.594918","9.813013","2068","","0","","",""
"9","","Almendorf","","50.575912","9.74597","2035","","0","","",""
"10","","Almendorf","","50.57603","9.746092","2035","","0","","",""
"11","","Armenhof Sägewerk","","50.562428","9.785438","2074","","0","","",""
"12","","Armenhof Sägewerk","","50.562372","9.785538","2074","","0","","",""
"13","","Armenhof Waldstraße","","50.560513","9.794313","2074","","0","","",""
"14","","Armenhof Waldstraße","","50.560528","9.792427","2074","","0","","",""
"15","","Arzell Friedhof","","50.763412","9.777893","1653","","0","","",""
"16","","Arzell Friedhof","","50.763118","9.777627","1653","","0","","",""
"17","","Arzell Kindergarten","","50.763037","9.78262","1653","","0","","",""
"18","","Arzell Kirschenmühle","","50.766991","9.773879","1653","","0","","",""
"19","","Arzell Kirschenmühle","","50.766937","9.773822","1653","","0","","",""
"20","","Arzell Ortsmitte","","50.762808","9.78026","1653","","0","","",""
"21","","Arzell Ortsmitte","","50.762765","9.780033","1653","","0","","",""
"22","","Altschwambach Kreuzung","","50.601912","9.980912","1713","","0","","",""
"23","","Altschwambach Kreuzung","","50.601878","9.980913","1713","","0","","",""
"24","","Aura","","50.58324","9.983533","1713","","0","","",""
"25","","Aura","","50.5833","9.983598","1713","","0","","",""
"26","","Künzell Bachrain Kirche","","50.539330186","9.705035537","2030","","0","","",""
"27","","Künzell Bachrain Kirche","","50.539147359","9.705498219","2030","","0","","",""
"28","","Künzell Bachrain Sportplatz","","50.535437","9.712533","2030","","0","","",""
"29","","Künzell Bachrain Sportplatz","","50.535473","9.71234","2030","","0","","",""
"30","","Batten Findlos Abzweig","","50.551285","10.00282","1740","","0","","",""
"31","","Batten Findlos Abzweig","","50.55133","10.002755","1740","","0","","",""
"32","","Batten Industriegebiet","","50.557995","10.008378","1740","","0","","",""
"33","","Batten","","50.555822","10.009178","1740","","0","","",""
"34","","Batten","","50.555082","10.009202","1740","","0","","",""
"35","","Batten","","50.554988","10.00989","1740","","0","","",""
"36","","Bernhards Steinbrücke","","50.6074","9.727502","2060","","0","","",""
"37","","Bernhards Steinbrücke","","50.607479","9.727318","2060","","0","","",""
"38","","Bernhards Ortsmitte","","50.601067","9.721855","2060","","0","","",""
"39","","Bernhards Ortsmitte","","50.601058","9.722043","2060","","0","","",""
"40","","Besges","","50.550975","9.592882","2001","","0","","",""
"41","","Besges","","50.550998","9.592798","2001","","0","","",""
"42","","Besges","","50.550418636","9.593929052","2001","","0","","",""
"43","","Betzenrod","","50.733505","9.773415","1629","","0","","",""
"44","","Betzenrod","","50.733847","9.773812","1629","","0","","",""
"45","","Burghaun Bahnhof","","50.701253","9.726918","1650","","0","","",""
"46","","Burghaun Bahnhof","","50.701353","9.726848","1650","","0","","",""
"47","","Burghaun Brücke","","50.700038","9.729347","1650","","0","","",""
"48","","Burghaun Brücke","","50.700068","9.729373","1650","","0","","",""
"49","","Burghaun Grubener Straße","","50.699590464","9.738596678","1650","","0","","",""
"50","","Burghaun Grubener Straße","","50.699598","9.7395","1650","","0","","",""
"51","","Burghaun Marktplatz","","50.697583","9.726862","1650","","0","","",""
"52","","Burghaun Marktplatz","","50.697538","9.726985","1650","","0","","",""
"53","","Burghaun Schule","","50.705283","9.725067","1650","","0","","",""
"54","","Burghaun Schlossstraße","","50.696597","9.723358","1650","","0","","",""
"55","","Bimbach Feuerwehrhaus","","50.574547","9.575182","2109","","0","","",""
"56","","Bimbach Feuerwehrhaus","","50.574567","9.575232","2109","","0","","",""
"57","","Bimbach Gaststätte Linde","","50.573825","9.57051","2109","","0","","",""
"58","","Bimbach Im Lüdertal","","50.575756","9.565556","2109","","0","","",""
"59","","Bimbach Lütterzer Straße","","50.576488","9.581712","2109","","0","","",""
"60","","Bimbach Lütterzer Straße","","50.576535","9.581783","2109","","0","","",""
"61","","Bimbach Milseburgstraße","","50.575592","9.585918","2109","","0","","",""
"62","","Bimbach Reiterhof","","50.57438","9.558878","2109","","0","","",""
"63","","Bimbach Reiterhof","","50.574288","9.55857","2109","","0","","",""
"64","","Bimbach Am Sägewerk","","50.575287","9.564127","2109","","0","","",""
"65","","Bimbach Am Sägewerk","","50.575262","9.564167","2109","","0","","",""
"66","","Blankenau Bürgerhaus MP","","50.543338","9.46604","2101","","0","","",""
"67","","Blankenau Friedhofstraße","","50.54452","9.474765","2101","","0","","",""
"68","","Blankenau Friedhofstraße","","50.544502","9.474545","2101","","0","","",""
"69","","Brand Am Berg","","50.533363","9.956085","1740","","0","","",""
"70","","Brand Am Berg","","50.533393","9.956417","1740","","0","","",""
"71","","Brandlos","","50.483893","9.482167","2128","","0","","",""
"72","","Brand Ortsmitte","","50.531788","9.956527","1740","","0","","",""
"73","","Brand Ortsmitte","","50.53196","9.956588","1740","","0","","",""
"74","","Schachen Brembach","","50.459958","9.9221","1847","","0","","",""
"75","","Bronnzell Fasaneriestraße","","50.512247","9.6796","2001","","0","","",""
"76","","Bronnzell Am Röhlingsberg","","50.51829","9.680425","2001","","0","","",""
"77","","Bronnzell Am Röhlingsberg","","50.518147","9.680347","2001","","0","","",""
"78","","Bronnzell Ziegeler Straße","","50.516123","9.67973","2001","","0","","",""
"79","","Bronnzell Ziegeler Straße","","50.516267","9.679663","2001","","0","","",""
"80","","Bad Salzschlirf Bahnhof","","50.627256131","9.49422732","2125","","0","","",""
"81","","Bad Salzschlirf Kurpark","","50.625982","9.503153","2125","","0","","",""
"82","","Bad Salzschlirf Kurpark","","50.62592","9.503272","2125","","0","","",""
"83","","Bad Salzschlirf Lärchenweg","","50.616282","9.50225","2125","","0","","",""
"84","","Bad Salzschlirf Lärchenweg","","50.61625","9.502305","2125","","0","","",""
"85","","Bad Salzschlirf Rathaus","","50.624738","9.507195","2125","","0","","",""
"86","","Bad Salzschlirf Rathaus","","50.624482","9.507393","2125","","0","","",""
"87","","Bad Salzschlirf Riedstraße","","50.621508","9.505807","2125","","0","","",""
"88","","Bad Salzschlirf Riedstraße","","50.621435","9.505368","2125","","0","","",""
"89","","Bad Salzschlirf Schlitzer Straße","","50.628261","9.507187","2125","","0","","",""
"90","","Buchenau Branders","","50.787257","9.787053","1618","","0","","",""
"91","","Buchenau","","50.780942","9.768973","1618","","0","","",""
"92","","Buchenau","","50.780682","9.769195","1618","","0","","",""
"93","","Buchenrod","","50.448163","9.510127","1942","","0","","",""
"94","","Böckels B 458","","50.549557545","9.761072248","2064","","0","","",""
"95","","Böckels B 458","","50.549485964","9.761119187","2064","","0","","",""
"96","","Büchenberg Gershof","","50.439982","9.701377","1846","","0","","",""
"97","","Büchenberg Gershof","","50.44","9.701277","1846","","0","","",""
"98","","Büchenberg","","50.434687","9.710115","1846","","0","","",""
"99","","Büchenberg","","50.43582","9.710777","1846","","0","","",""
"100","","Dalherda","","50.417833","9.826713","1806","","0","","",""
"101","","Dalherda","","50.417385","9.82718","1806","","0","","",""
"102","","Dammersbach","","50.629117","9.776062","1645","","0","","",""
"103","","Dassen","","50.508125","9.780225","2077","","0","","",""
"104","","Dassen","","50.508042","9.780265","2077","","0","","",""
"105","","Dietershan Abzw. Dietershan","","50.590772","9.711868","2001","","0","","",""
"106","","Dietershan Abzw. Dietershan","","50.59068","9.711772","2001","","0","","",""
"107","","Dietershan Ortsmitte","","50.601128","9.701203","2060","","0","","",""
"108","","Dietges","","50.528838","9.930842","1728","","0","","",""
"109","","Dietgeshof","","50.651065","10.035277","1710","","0","","",""
"110","","Dietgeshof","","50.65113","10.035333","1710","","0","","",""
"111","","Dietershan Wendelinusstraße","","50.601214366","9.706609994","2060","","0","","",""
"112","","Dietershan Wendelinusstraße","","50.60114","9.706388","2060","","0","","",""
"113","","Dipperz Eckartsmühle","","50.538392","9.810028","2070","","0","","",""
"114","","Dipperz Eckartsmühle","","50.538042","9.810297","2070","","0","","",""
"115","","Dipperz Evangelische Kirche","","50.540743","9.802187","2070","","0","","",""
"116","","Dipperz Evangelische Kirche","","50.540615","9.802573","2070","","0","","",""
"117","","Dipperz Gasthaus Kircher","","50.543323","9.793781","2070","","0","","",""
"118","","Dipperz Gasthaus Kircher","","50.5433","9.792902","2070","","0","","",""
"119","","Dipperz Am Holzbach","","50.542086136","9.788967222","2070","","0","","",""
"120","","Dipperz Am Holzbach","","50.542257446","9.789311886","2070","","0","","",""
"121","","Dipperz Külos","","50.538988","9.81813","2070","","0","","",""
"122","","Dipperz Külos","","50.538985","9.818182","2070","","0","","",""
"123","","Dipperz Langenbieberstraße","","50.54349","9.797078","2070","","0","","",""
"124","","Dipperz Langenbieberstraße","","50.543562","9.797287","2070","","0","","",""
"125","","Dippach","","50.614983","10.031097","1710","","0","","",""
"126","","Dippach","","50.614963","10.031098","1710","","0","","",""
"127","","Dipperz Rhönstraße","","50.5418","9.80701","2070","","0","","",""
"128","","Dipperz Rhönstraße","","50.541785","9.807162","2070","","0","","",""
"129","","Dirlos DGH","","50.523433","9.74918","2077","","0","","",""
"130","","Dirlos DGH","","50.523527","9.748678","2077","","0","","",""
"131","","Dirlos Grumbachweg","","50.522045","9.754565","2077","","0","","",""
"132","","Dirlos Grumbachweg","","50.522263","9.753968","2077","","0","","",""
"133","","Dirlos Kohlgrunder Straße","","50.523785","9.755637","2077","","0","","",""
"134","","Dirlos Loheland Abzweig","","50.515663","9.766587","2077","","0","","",""
"135","","Dirlos Loheland Abzweig","","50.51513","9.767118","2077","","0","","",""
"136","","Dirlos Loheland Schule","","50.51344","9.762498","2077","","0","","",""
"137","","Dittlofrod","","50.756102","9.744682","1618","","0","","",""
"138","","Dittlofrod","","50.756218","9.744775","1618","","0","","",""
"139","","Danzwiesen Milseburg Parkplatz","","50.553965","9.896723","1701","","0","","",""
"140","","Danzwiesen Milseburg Parkplatz","","50.55326","9.895872","1701","","0","","",""
"141","","Dorfborn Rippachstraße","","50.466168","9.623703","1920","","0","","",""
"142","","Dorfborn Rippachstraße","","50.465992","9.623805","1920","","0","","",""
"143","","Dorfborn In der Au","","50.465877","9.630492","1920","","0","","",""
"144","","Dorfborn In der Au","","50.465902","9.630548","1920","","0","","",""
"145","","Dietershausen Gärtnerei","","50.500757","9.79627","2075","","0","","",""
"146","","Dietershausen Gärtnerei","","50.501557","9.79586","2075","","0","","",""
"147","","Dietershausen Ortsmitte","","50.505397","9.79555","2075","","0","","",""
"148","","Dietershausen Ortsmitte","","50.505273","9.795423","2075","","0","","",""
"149","","Döllbach","","50.443093","9.734042","1840","","0","","",""
"150","","Döllbach","","50.443018","9.733972","1840","","0","","",""
"151","","Döngesmühle Kirche","","50.430195","9.546005","1925","","0","","",""
"152","","Döngesmühle Kirche","","50.430262","9.545952","1925","","0","","",""
"153","","Döngesmühle Am Mühlberg","","50.43086","9.540435","1925","","0","","",""
"154","","Döngesmühle Am Mühlberg","","50.430938","9.540908","1925","","0","","",""
"155","","Dörmbach","","50.562263","9.922095","1728","","0","","",""
"156","","Dörmbach","","50.562162","9.922225","1728","","0","","",""
"157","","Dörmbach","","50.562263","9.922095","1728","","0","","",""
"158","","Ebersberg Altenmühle","","50.48495","9.817243","1822","","0","","",""
"159","","Ebersberg Altenmühle","","50.484843","9.816997","1822","","0","","",""
"160","","Ebersberg Oberrod","","50.468518","9.833897","1822","","0","","",""
"161","","Ebersberg Oberlütter","","50.482808","9.807202","1822","","0","","",""
"162","","Ebersberg Oberlütter","","50.482827","9.808643","1822","","0","","",""
"163","","Ebersberg Röderhaid","","50.480227","9.823132","1822","","0","","",""
"164","","Ebersberg Röderhaid","","50.48022","9.823057","1822","","0","","",""
"165","","Ebersberg Schafhof","","50.474055","9.832643","1822","","0","","",""
"166","","Ebersberg Schafhof","","50.474112","9.832598","1822","","0","","",""
"167","","Eckweisbach Ortsmitte","","50.571868","9.957785","1740","","0","","",""
"168","","Eckweisbach Ortsmitte","","50.571898","9.957617","1740","","0","","",""
"169","","Eckweisbach Raiffeisen","","50.571258","9.954142","1740","","0","","",""
"170","","Eckweisbach Raiffeisen","","50.571083","9.95387","1740","","0","","",""
"171","","Edelzell Berg","","50.523273","9.701457","2001","","0","","",""
"172","","Edelzell Berg","","50.523724","9.701466","2001","","0","","",""
"173","","Edelzell Bürgerhaus","","50.526812","9.704525","2001","","0","","",""
"174","","Edelzell Bürgerhaus","","50.526543","9.705207","2001","","0","","",""
"175","","Edelzell Chattenstraße","","50.528203","9.701216","2001","","0","","",""
"176","","Edelzell Chattenstraße","","50.528068","9.70142","2001","","0","","",""
"177","","Edelzell Heussstraße","","50.526188","9.708548","2001","","0","","",""
"178","","Edelzell Heussstraße","","50.525907","9.708393","2001","","0","","",""
"179","","Edelzell Hohenlohestraße","","50.528848","9.700214","2001","","0","","",""
"180","","Edelzell Hohenlohestraße","","50.528761","9.700207","2001","","0","","",""
"181","","Edelzell Stauferring","","50.528752","9.697483","2001","","0","","",""
"182","","Edelzell Stauferring","","50.528792","9.697455","2001","","0","","",""
"183","","Egelmes Rödergrund","","50.595353","9.87236","1725","","0","","",""
"184","","Egelmes Rödergrund","","50.595523","9.872463","1725","","0","","",""
"185","","Eichenzell Dalbergstraße","","50.497153","9.703548","1802","","0","","",""
"186","","Eichenzell Dalbergstraße","","50.497102","9.703487","1802","","0","","",""
"187","","Eichenzell Schloss Fasanerie","","50.507883","9.70203","1802","","0","","",""
"188","","Eichenzell Gartenstraße","","50.497025","9.692835","1802","","0","","",""
"189","","Eichenzell Gartenstraße","","50.497145","9.692713","1802","","0","","",""
"190","","Eichenzell Gerbachshof","","50.50179","9.687658","1802","","0","","",""
"191","","Eichenzell Gerbachshof","","50.501757","9.687635","1802","","0","","",""
"192","","Eichenau","","50.610507","9.521332","2109","","0","","",""
"193","","Eichenau","","50.610712","9.521474","2109","","0","","",""
"194","","Eichenried","","50.396228","9.651495","1901","","0","","",""
"195","","Eichenzell Kulturscheune","","50.492088","9.699417","1802","","0","","",""
"196","","Eichenzell Kulturscheune","","50.491992","9.699482","1802","","0","","",""
"197","","Eichenzell Rhönhof","","50.487982","9.707177","1802","","0","","",""
"198","","Eichenzell Rhönhof","","50.487895","9.707245","1802","","0","","",""
"199","","Eichenzell Sachsenhausen","","50.491518","9.69127","1802","","0","","",""
"200","","Eichenzell Sachsenhausen","","50.49139","9.691568","1802","","0","","",""
"201","","Eichenzell Wohlhaupter Straße","","50.499823","9.697262","1802","","0","","",""
"202","","Eichenzell Wohlhaupter Straße","","50.499848","9.6973","1802","","0","","",""
"203","","Eiterfeld evangelische Kirche","","50.758898","9.804543","1653","","0","","",""
"204","","Eiterfeld evangelische Kirche","","50.758842","9.804322","1653","","0","","",""
"205","","Eiterfeld Schule","","50.762963","9.794503","1653","","0","","",""
"206","","Eiterfeld Schule","","50.762965","9.794025","1653","","0","","",""
"207","","Eiterfeld Schule","","50.762975","9.79359","1653","","0","","",""
"208","","Eiterfeld Schule","","50.762919927","9.794782251","1653","","0","","",""
"209","","Eiterfeld Schule","","50.76291","9.794325","1653","","0","","",""
"210","","Eiterfeld Schule","","50.762885","9.793881","1653","","0","","",""
"211","","Elters Ortsmitte","","50.579692","9.880072","1701","","0","","",""
"212","","Elters Ortsmitte","","50.579713","9.88002","1701","","0","","",""
"213","","Elters Schäferweg","","50.577927","9.884842","1701","","0","","",""
"214","","Elters Schäferweg","","50.577907","9.884822","1701","","0","","",""
"215","","Engelhelms Bürgerhaus","","50.518538","9.706957","2030","","0","","",""
"216","","Engelhelms Bürgerhaus","","50.518402","9.707383","2030","","0","","",""
"217","","Engelhelms Ortsmitte","","50.516388","9.711912","2030","","0","","",""
"218","","Engelhelms Ortsmitte","","50.516788","9.711785","2030","","0","","",""
"219","","Engelhelms Am Riedrain","","50.520117","9.704395","2030","","0","","",""
"220","","Engelhelms Am Riedrain","","50.519965","9.70458","2030","","0","","",""
"221","","Engelhelms Ringstraße","","50.514447","9.713413","2030","","0","","",""
"222","","Esbachsgraben","","50.620718","9.98873","1710","","0","","",""
"223","","Esbachsgraben","","50.620752","9.988808","1710","","0","","",""
"224","","Fulda Aachener Straße","","50.570488","9.647686","2001","","0","","",""
"225","","Fulda Aachener Straße","","50.57108","9.647066","2001","","0","","",""
"226","","Fulda Aschenbergplatz","","50.575650458","9.659482241","2001","","0","","",""
"227","","Fulda Aschenbergplatz","","50.575715","9.6596","2001","","0","","",""
"228","","Fulda Abtstor","","50.552680152","9.670740142","2001","","0","","",""
"229","","Fulda Abtstor","","50.552485022","9.671273902","2001","","0","","",""
"230","","Fulda Abt-Richard-Straße","","50.551185","9.656695","2001","","0","","",""
"231","","Fulda Abt-Richard-Straße","","50.550945","9.654177","2001","","0","","",""
"232","","Fulda Adalbertstraße","","50.558442522","9.676600099","2001","","0","","",""
"233","","Fulda Adalbertstraße","","50.558523461","9.6765773","2001","","0","","",""
"234","","Fulda Adenauerstraße","","50.575542","9.663358","2001","","0","","",""
"235","","Fulda Adenauerstraße","","50.575606","9.663156","2001","","0","","",""
"236","","Fulda Ahornweg","","50.560888","9.68847","2001","","0","","",""
"237","","Fulda Am Jagdstein","","50.550433123","9.694566876","2001","","0","","",""
"238","","Fulda Am Jagdstein","","50.551115","9.693922","2001","","0","","",""
"239","","Fulda Am Kleegarten","","50.547907323","9.696566463","2001","","0","","",""
"240","","Fulda Am Kleegarten","","50.547953","9.696577","2001","","0","","",""
"241","","Fulda Am Kronhof","","50.554460998","9.669692069","2001","","0","","",""
"242","","Fulda An der Liede","","50.568121428","9.650373459","2001","","0","","",""
"243","","Fulda An der Liede","","50.568142724","9.650389552","2001","","0","","",""
"244","","Fulda Amand-Ney-Straße","","50.559485","9.680673","2001","","0","","",""
"245","","Fulda Amand-Ney-Straße","","50.558920487","9.678719044","2001","","0","","",""
"246","","Fulda Antoniusheim","","50.55379681","9.657831341","2001","","0","","",""
"247","","Fulda Antoniusheim","","50.55370223","9.657423645","2001","","0","","",""
"248","","Fulda Arleser Straße","","50.573503","9.66065","2001","","0","","",""
"249","","Fulda Am Rosengarten","","50.547985724","9.671845883","2001","","0","","",""
"250","","Fulda Am Rosengarten","","50.547643999","9.67170909","2001","","0","","",""
"251","","Fulda Am Seeseberg","","50.55255","9.695067","2001","","0","","",""
"252","","Fulda Am Seeseberg","","50.552617","9.695832","2001","","0","","",""
"253","","Fulda An der Steingrube","","50.567201032","9.665663391","2001","","0","","",""
"254","","Fulda An der Steingrube","","50.567229142","9.665761292","2001","","0","","",""
"255","","Fulda Am Schützenhaus","","50.550705805","9.687520713","2001","","0","","",""
"256","","Fulda Am Schützenhaus","","50.551323597","9.687251151","2001","","0","","",""
"257","","Fulda Adalbert-Stifter-Straße","","50.54761","9.702653","2001","","0","","",""
"258","","Fulda An St. Johann","","50.55007352","9.711806774","2001","","0","","",""
"259","","Fulda An St. Johann","","50.550015574","9.711762518","2001","","0","","",""
"260","","Fulda An St. Johann","","50.550575429","9.712276161","2001","","0","","",""
"261","","Fulda Aueweiher","","50.536285","9.666935","2001","","0","","",""
"262","","Fulda Bachmühle","","50.541487","9.70054","2001","","0","","",""
"263","","Fulda Bachmühle","","50.542240826","9.698191881","2001","","0","","",""
"264","","Fulda Bardoschule","","50.55089583","9.659181833","2001","","0","","",""
"265","","Fulda Bellingerstraße","","50.532537","9.682614","2001","","0","","",""
"266","","Fulda Bellingerstraße","","50.532538","9.682518","2001","","0","","",""
"267","","Fulda Brüder-Grimm-Schule","","50.556483","9.650739","2001","","0","","",""
"268","","Fulda Birkenstieg","","50.559725","9.666608","2001","","0","","",""
"269","","Fulda Birkenstieg","","50.559647","9.666847","2001","","0","","",""
"270","","Fulda Black-Horse-Straße","","50.552175","9.645405","2001","","0","","",""
"271","","Fulda Black-Horse-Straße","","50.552185","9.645","2001","","0","","",""
"272","","Fulda Horas Bonifatiusbrunnen","","50.565578","9.661392","2001","","0","","",""
"273","","Fulda Horas Bonifatiusbrunnen","","50.565708","9.661925","2001","","0","","",""
"274","","Fulda Bonifatiushaus","","50.551292","9.660655","2001","","0","","",""
"275","","Fulda Bonifatiushaus","","50.551328","9.66069","2001","","0","","",""
"276","","Fulda Brauhausstraße","","50.548315","9.677528","2001","","0","","",""
"277","","Fulda Brauhausstraße","","50.548338","9.677447","2001","","0","","",""
"278","","Fulda Brüsseler Straße","","50.575697","9.653703","2001","","0","","",""
"279","","Fulda Brüsseler Straße","","50.575665","9.653773","2001","","0","","",""
"280","","Fulda Buttlarstraße","","50.559191417","9.677271992","2001","","0","","",""
"281","","Fulda Buttlarstraße","","50.559094291","9.677580446","2001","","0","","",""
"282","","Fulda Dalberg","","50.549568","9.683182","2001","","0","","",""
"283","","Fulda Daimler-Benz-Straße","","50.566766595","9.689879715","2001","","0","","",""
"284","","Fulda Daimler-Benz-Straße","","50.566463","9.689748","2001","","0","","",""
"285","","Fulda Dientzenhofer Straße","","50.551351716","9.690853357","2001","","0","","",""
"286","","Fulda Dokkumstraße","","50.568381657","9.660850167","2001","","0","","",""
"287","","Fulda Dokkumstraße","","50.569126135","9.661248475","2001","","0","","",""
"288","","Fulda Dom","","50.553385682","9.673103839","2001","","0","","",""
"289","","Fulda Dom","","50.553568","9.673147","2001","","0","","",""
"290","","Fulda Donaustraße","","50.538615922","9.683592618","2001","","0","","",""
"291","","Fulda Donaustraße","","50.538646607","9.68357116","2001","","0","","",""
"292","","Fulda Edelzeller Brücke","","50.537009","9.691077","2001","","0","","",""
"293","","Fulda Edelzeller Brücke","","50.537263","9.690874","2001","","0","","",""
"294","","Fulda Edelzeller Straße","","50.540307806","9.686966836","2001","","0","","",""
"295","","Fulda Edelzeller Straße","","50.540306101","9.686902463","2001","","0","","",""
"296","","Fulda Am Eisweiher","","50.56370072","9.675067216","2001","","0","","",""
"297","","Fulda Am Eisweiher","","50.564026995","9.674917012","2001","","0","","",""
"298","","Fulda Ellerstraße","","50.546958","9.686962","2001","","0","","",""
"299","","Fulda Ellerstraße","","50.547032551","9.686201066","2001","","0","","",""
"300","","Fulda Am Emaillierwerk","","50.548710072","9.68956992","2001","","0","","",""
"301","","Fulda Am Emaillierwerk","","50.548675985","9.689504206","2001","","0","","",""
"302","","Fulda Edelzeller Siedlung","","50.535117","9.692302","2001","","0","","",""
"303","","Fulda Edelzeller Siedlung","","50.535077","9.692262","2001","","0","","",""
"304","","Fulda Feuerwache","","50.547352","9.661517","2001","","0","","",""
"305","","Fulda Feuerwache","","50.547117","9.662347","2001","","0","","",""
"306","","Fulda Feuerwache","","50.546652","9.661787","2001","","0","","",""
"307","","Fulda Flemingstraße","","50.551443","9.640325","2001","","0","","",""
"308","","Fulda Flemingstraße","","50.551545","9.640585","2001","","0","","",""
"309","","Fulda Florengasse","","50.5477812","9.679555893","2001","","0","","",""
"310","","Fulda Florengasse","","50.548028","9.68091","2001","","0","","",""
"311","","Fulda Frauenberg","","50.560375651","9.674014449","2001","","0","","",""
"312","","Fulda Frauenberg","","50.560551154","9.673966169","2001","","0","","",""
"313","","Fulda Von-Galen-Straße","","50.566505","9.696833","2001","","0","","",""
"314","","Fulda Von-Galen-Straße","","50.566483","9.696913","2001","","0","","",""
"315","","Fulda Geisaer Straße","","50.571845848","9.662872553","2001","","0","","",""
"316","","Fulda Geisaer Straße","","50.571794743","9.662944973","2001","","0","","",""
"317","","Fulda-Galerie Jackson-Pollock-Platz","","50.538363","9.646445","2001","","0","","",""
"318","","Fulda-Galerie Jackson-Pollock-Platz","","50.538225","9.646222","2001","","0","","",""
"319","","Fulda-Galerie Jackson-Pollock-Platz","","50.538373","9.647052","2001","","0","","",""
"320","","Fulda-Galerie Käthe-Kollwitz-Straße","","50.538288","9.639924","2001","","0","","",""
"321","","Fulda-Galerie Käthe-Kollwitz-Straße","","50.538092","9.639892","2001","","0","","",""
"322","","Fulda-Galerie Mondrianplatz","","50.539024","9.650701","2001","","0","","",""
"323","","Fulda-Galerie Mondrianplatz","","50.538973","9.650809","2001","","0","","",""
"324","","Fulda Gummiwerke","","50.546404903","9.691216797","2001","","0","","",""
"325","","Fulda Gummiwerke","","50.546262584","9.691531956","2001","","0","","",""
"326","","Fulda-Galerie Westfriedhof","","50.541402","9.640594","2001","","0","","",""
"327","","Fulda-Galerie Westfriedhof","","50.541364","9.639905","2001","","0","","",""
"328","","Fulda-Galerie Werner-Schmid-Straße","","50.542236","9.645302","2001","","0","","",""
"329","","Fulda-Galerie Werner-Schmid-Straße","","50.541967","9.645566","2001","","0","","",""
"330","","Fulda-Galerie Werner-Schmid-Straße","","50.541429445","9.645811021","2001","","0","","",""
"331","","Fulda-Galerie Werner-Schmid-Straße","","50.54142","9.64568","2001","","0","","",""
"332","","Fulda Haderwald","","50.549323","9.647827","2001","","0","","",""
"333","","Fulda Haderwald","","50.549237","9.647718","2001","","0","","",""
"334","","Fulda Hainzeller Straße","","50.544153","9.662392","2001","","0","","",""
"335","","Fulda Hainzeller Straße","","50.54406","9.662382","2001","","0","","",""
"336","","Fulda Hartungstraße","","50.570879955","9.652943015","2001","","0","","",""
"337","","Fulda Hartungstraße","","50.57081011","9.652862549","2001","","0","","",""
"338","","Fulda Haderwald-Siedlung","","50.544533","9.646415","2001","","0","","",""
"339","","Fulda Haderwald-Siedlung","","50.544438","9.64648","2001","","0","","",""
"340","","Fulda Horas Brücke","","50.561517","9.66345","2001","","0","","",""
"341","","Fulda Horas Brücke","","50.561812","9.662943","2001","","0","","",""
"342","","Fulda Hermann-Muth-Straße","","50.56744","9.67484","2001","","0","","",""
"343","","Fulda Hermann-Muth-Straße","","50.567583","9.674998","2001","","0","","",""
"344","","Fulda Herz-Jesu-Krankenhaus","","50.562014787","9.674727917","2001","","0","","",""
"345","","Fulda Herz-Jesu-Krankenhaus","","50.561878478","9.674709141","2001","","0","","",""
"346","","Fulda Hinterburg","","50.555388034","9.669714868","2001","","0","","",""
"347","","Fulda Heinrich-von-Kleist-Straße","","50.551647401","9.706490636","2001","","0","","",""
"348","","Fulda Heinrich-von-Kleist-Straße","","50.552037668","9.706139266","2001","","0","","",""
"349","","Fulda Hochschule","","50.564234856","9.687623978","2001","","0","","",""
"350","","Fulda Hochschule","","50.563231322","9.686697274","2001","","0","","",""
"351","","Fulda Hünfelder Straße","","50.575918","9.665192","2001","","0","","",""
"352","","Fulda Hünfelder Straße","","50.576157","9.66521","2001","","0","","",""
"353","","Fulda Heinrich-von-Bibra-Platz","","50.556360209","9.682230055","2001","","0","","",""
"354","","Fulda Heinrich-von-Bibra-Platz","","50.55638151","9.682472795","2001","","0","","",""
"355","","Fulda Horas Ortsmitte","","50.564656538","9.659274369","2001","","0","","",""
"356","","Fulda Horas Ortsmitte","","50.56432","9.659635","2001","","0","","",""
"357","","Fulda Im Fischfeld","","50.541675","9.678575","2001","","0","","",""
"358","","Fulda Im Fischfeld","","50.541498","9.67867","2001","","0","","",""
"359","","Fulda Kohlhaus Isarstraße","","50.530365","9.683922","2001","","0","","",""
"360","","Fulda Kohlhaus Isarstraße","","50.530333","9.683892","2001","","0","","",""
"361","","Fulda König-Konrad-Straße, Abzweig","","50.569778608","9.665633887","2001","","0","","",""
"362","","Fulda König-Konrad-Straße, Abzweig","","50.56975","9.665688","2001","","0","","",""
"363","","Fulda Kohlhaus Kaiserwiesen","","50.529132","9.69041","2001","","0","","",""
"364","","Fulda Kohlhaus Kaiserwiesen","","50.529212","9.69017","2001","","0","","",""
"365","","Fulda Kettelerstraße","","50.552702","9.652695","2001","","0","","",""
"366","","Fulda Kettelerstraße","","50.552877","9.653108","2001","","0","","",""
"367","","Fulda Künzeller Höhe","","50.543403","9.701313","2001","","0","","",""
"368","","Fulda Künzeller Höhe","","50.543748","9.701323","2001","","0","","",""
"369","","Fulda Kinderakademie","","50.545358","9.68693","2001","","0","","",""
"370","","Fulda Kinderakademie","","50.5455354","9.687031","2001","","0","","",""
"371","","Fulda Klinikum/St.-Pius-Kirche","","50.548487656","9.708639085","2001","","0","","",""
"372","","Fulda Klinikum/St.-Pius-Kirche","","50.548274612","9.708682001","2001","","0","","",""
"373","","Fulda Klinikum","","50.548330004","9.706392735","2001","","0","","",""
"374","","Fulda Klinikum","","50.548473","9.706719","2001","","0","","",""
"375","","Fulda Kreuzbergstraße","","50.538306","9.693789","2001","","0","","",""
"376","","Fulda Kreuzbergstraße","","50.538401","9.693695","2001","","0","","",""
"377","","Fulda König-Konrad-Straße, Schl.","","50.576327","9.669172","2001","","0","","",""
"378","","Fulda König-Konrad-Straße, Schl.","","50.576479","9.670247","2001","","0","","",""
"379","","Fulda Kurfürstenstraße","","50.556313348","9.680947959","2001","","0","","",""
"380","","Fulda Luxemburger Straße","","50.573075","9.645285","2001","","0","","",""
"381","","Fulda Luxemburger Straße","","50.574418","9.64534","2001","","0","","",""
"382","","Fulda Löhertor","","50.546528","9.673842","2001","","0","","",""
"383","","Fulda Mackenrodtstraße","","50.56615071","9.673058242","2001","","0","","",""
"384","","Fulda Mackenrodtstraße","","50.56606808","9.673722088","2001","","0","","",""
"385","","Fulda Magdeburger Straße","","50.557448","9.690995","2001","","0","","",""
"386","","Fulda Magdeburger Straße","","50.557093","9.691303","2001","","0","","",""
"387","","Fulda Mainstraße","","50.537097","9.683262","2001","","0","","",""
"388","","Fulda Mainstraße","","50.537033","9.683193","2001","","0","","",""
"389","","Fulda Mainzer Straße","","50.573487","9.663605","2001","","0","","",""
"390","","Fulda Martin-Luther-Platz","","50.543515","9.676253","2001","","0","","",""
"391","","Fulda Martin-Luther-Platz","","50.54385","9.675872","2001","","0","","",""
"392","","Fulda Kohlhaus Marienplatz","","50.529285","9.681923","2001","","0","","",""
"393","","Fulda Kohlhaus Marienplatz","","50.529142","9.682885","2001","","0","","",""
"394","","Fulda Marienschule","","50.552061953","9.683407545","2001","","0","","",""
"395","","Fulda Marianum","","50.552953","9.699806","2055","","0","","",""
"396","","Fulda Marianum","","50.552155258","9.703092277","2055","","0","","",""
"397","","Fulda Marianum","","50.553422","9.702525","2055","","0","","",""
"398","","Fulda Marianum","","50.552971","9.699641","2055","","0","","",""
"399","","Fulda Marianum","","50.551919","9.701695","2055","","0","","",""
"400","","Fulda Mehlerstraße","","50.542590261","9.686819315","2001","","0","","",""
"401","","Fulda Mehlerstraße","","50.542449","9.686705","2001","","0","","",""
"402","","Fulda Michael-Henkel-Straße","","50.546282185","9.699677825","2001","","0","","",""
"403","","Fulda Michael-Henkel-Straße","","50.54647308","9.700798988","2001","","0","","",""
"404","","Fulda Monnetstraße","","50.5748","9.649215","2001","","0","","",""
"405","","Fulda Monnetstraße","","50.574825","9.649337","2001","","0","","",""
"406","","Fulda Ochsenwiese","","50.559048","9.685633","2001","","0","","",""
"407","","Fulda Ochsenwiese","","50.558658","9.684903","2001","","0","","",""
"408","","Fulda Osthessen-Center","","50.548962","9.68607","2001","","0","","",""
"409","","Fulda Pappelweg","","50.556918","9.693328","2001","","0","","",""
"410","","Fulda Paulustor","","50.55606","9.672792","2001","","0","","",""
"411","","Fulda Paulustor","","50.556219624","9.672964364","2001","","0","","",""
"412","","Fulda Platz der Weißen Rose","","50.561352","9.694558","2001","","0","","",""
"413","","Fulda Platz der Weißen Rose","","50.561788","9.694723","2001","","0","","",""
"414","","Fulda Pozzistraße","","50.577789","9.658569","2001","","0","","",""
"415","","Fulda Pozzistraße","","50.577711","9.658708","2001","","0","","",""
"416","","Fulda Peterstor","","50.55015916","9.681243002","2001","","0","","",""
"417","","Fulda Peterstor","","50.549967428","9.68132481","2001","","0","","",""
"418","","Fulda Rangstraße","","50.544078","9.678192","2001","","0","","",""
"419","","Fulda Rangstraße","","50.544022","9.678127","2001","","0","","",""
"420","","Fulda RhönEnergie","","50.546139013","9.674943835","2001","","0","","",""
"421","","Fulda Regensburger Straße","","50.573688","9.669227","2001","","0","","",""
"422","","Fulda Regensburger Straße","","50.572918","9.668813","2001","","0","","",""
"423","","Fulda Robert-Kircher-Straße","","50.550581394","9.673573226","2001","","0","","",""
"424","","Fulda Robert-Kircher-Straße","","50.550104197","9.67388168","2001","","0","","",""
"425","","Fulda Ronsbachstraße","","50.53664","9.678762","2001","","0","","",""
"426","","Fulda Ronsbachstraße","","50.536578","9.678673","2001","","0","","",""
"427","","Fulda Schannatstraße","","50.569177","9.654322","2001","","0","","",""
"428","","Fulda Schannatstraße","","50.569048","9.654527","2001","","0","","",""
"429","","Fulda Schillerstraße","","50.549677","9.702093","2001","","0","","",""
"430","","Fulda Schlitzer Straße","","50.567059201","9.653723538","2001","","0","","",""
"431","","Fulda Schlitzer Straße","","50.567147792","9.653500915","2001","","0","","",""
"432","","Fulda Schumannstraße","","50.546222","9.701142","2001","","0","","",""
"433","","Fulda Schumannstraße","","50.546345","9.701162","2001","","0","","",""
"434","","Fulda Stadion","","50.539932","9.663307","2001","","0","","",""
"435","","Fulda Stadion","","50.539942","9.663178","2001","","0","","",""
"436","","Fulda St. Johannes-Kirche","","50.552815635","9.711112082","2001","","0","","",""
"437","","Fulda St. Johannes-Kirche","","50.552876986","9.711149633","2001","","0","","",""
"438","","Fulda Stadtschloss","","50.553672407","9.676752985","2001","","0","","",""
"439","","Fulda Stadtschloss","","50.553718419","9.676824063","2001","","0","","",""
"440","","Fulda Stadtschloss","","50.553759319","9.676921964","2001","","0","","",""
"441","","Fulda Stadtschloss","","50.553803627","9.6770145","2001","","0","","",""
"442","","Fulda Stadtschloss","","50.55384623","9.677089602","2001","","0","","",""
"443","","Fulda Stadtschloss","","50.553924621","9.677404761","2001","","0","","",""
"444","","Fulda Stadtschloss","","50.553732904","9.677638113","2001","","0","","",""
"445","","Fulda Stadtschloss","","50.553628951","9.677786976","2001","","0","","",""
"446","","Fulda Stadtschloss","","50.553654939","9.677528143","2001","","0","","",""
"447","","Fulda Stadtschloss","","50.553823224","9.677301496","2001","","0","","",""
"448","","Fulda Stadtschloss","","50.553968077","9.677108377","2001","","0","","",""
"449","","Fulda Stadtschloss","","50.55375591","9.677105695","2001","","0","","",""
"450","","Fulda Stadtschloss","","50.553692431","9.676975608","2001","","0","","",""
"451","","Fulda Sturmiusschule","","50.535503","9.681723","2001","","0","","",""
"452","","Fulda Sturmiusschule","","50.535683","9.681605","2001","","0","","",""
"453","","Fulda St.-Vinzenz-Straße","","50.557827","9.65935","2001","","0","","",""
"454","","Fulda St.-Vinzenz-Straße","","50.557962","9.659295","2001","","0","","",""
"455","","Fulda Schwarzmannstraße","","50.576105","9.657448","2001","","0","","",""
"456","","Fulda Schwarzmannstraße","","50.576198","9.657475","2001","","0","","",""
"457","","Fulda Theresienheim","","50.560437","9.647885","2001","","0","","",""
"458","","Fulda Theresienheim","","50.560317","9.648505","2001","","0","","",""
"459","","Fulda Ulmenweg","","50.560677","9.691092","2001","","0","","",""
"460","","Fulda Universitätsplatz","","50.551735595","9.68018353","2001","","0","","",""
"461","","Fulda Universitätsplatz","","50.551847221","9.680018574","2001","","0","","",""
"462","","Fulda Waidesgrund","","50.557799264","9.698559344","2001","","0","","",""
"463","","Fulda Waidesgrund","","50.557863164","9.698665291","2001","","0","","",""
"464","","Fulda Wallweg","","50.540383","9.676327","2001","","0","","",""
"465","","Fulda Wallweg","","50.539463","9.676267","2001","","0","","",""
"466","","Fulda Washingtonallee","","50.554927","9.650082","2001","","0","","",""
"467","","Fulda Washingtonallee","","50.554718","9.65058","2001","","0","","",""
"468","","Fulda Walter-Bauer-Straße","","50.551279286","9.716892242","2001","","0","","",""
"469","","Fulda Walter-Bauer-Straße","","50.551322","9.717142","2001","","0","","",""
"470","","Fulda Weichselstraße","","50.539993","9.681905","2001","","0","","",""
"471","","Fulda Weichselstraße","","50.540012","9.681855","2001","","0","","",""
"472","","Fulda Weimarer Straße","","50.555945269","9.666694701","2001","","0","","",""
"473","","Fulda Weimarer Straße","","50.556363617","9.666937441","2001","","0","","",""
"474","","Fulda Weserstraße","","50.537977","9.67722","2001","","0","","",""
"475","","Fulda Weserstraße","","50.538015","9.677073","2001","","0","","",""
"476","","Fulda Weyherser Weg","","50.545432","9.682762","2001","","0","","",""
"477","","Fulda Winfriedschule","","50.557160258","9.674730599","2001","","0","","",""
"478","","Fulda Winfriedschule","","50.557134697","9.673984945","2001","","0","","",""
"479","","Fulda Wirmerstraße","","50.563883","9.695108","2001","","0","","",""
"480","","Fulda Wirmerstraße","","50.563917","9.695173","2001","","0","","",""
"481","","Fulda Witzelstraße","","50.572312","9.65383","2001","","0","","",""
"482","","Fulda Witzelstraße","","50.572773","9.654202","2001","","0","","",""
"483","","Fulda Wörthstraße","","50.561152629","9.682637751","2001","","0","","",""
"484","","Fulda Wörthstraße","","50.56113559","9.682736993","2001","","0","","",""
"485","","Fulda ZOB","","50.553680076","9.684096873","2001","","0","","",""
"486","","Fulda ZOB","","50.553680928","9.683804512","2001","","0","","",""
"487","","Fulda ZOB","","50.553562489","9.6842511","2001","","0","","",""
"488","","Fulda ZOB","","50.553563341","9.683950692","2001","","0","","",""
"489","","Fulda ZOB","","50.553415931","9.684438854","2001","","0","","",""
"490","","Fulda ZOB","","50.553440641","9.684107602","2001","","0","","",""
"491","","Fulda ZOB","","50.553301752","9.684581012","2001","","0","","",""
"492","","Fulda ZOB","","50.553288118","9.684289992","2001","","0","","",""
"493","","Fulda ZOB","","50.553198649","9.68471244","2001","","0","","",""
"494","","Fulda ZOB","","50.553170531","9.684452266","2001","","0","","",""
"495","","Fulda Zentralfriedhof","","50.543532","9.697242","2001","","0","","",""
"496","","Fulda Zentralfriedhof","","50.5438","9.696836","2001","","0","","",""
"497","","Fulda Zieherser Weg","","50.55846","9.683093","2001","","0","","",""
"498","","Fulda Überm Engelshaus","","50.541885","9.656402","2001","","0","","",""
"499","","Fulda Überm Engelshaus","","50.541931872","9.6562998","2001","","0","","",""
"500","","Finkenhain Birkenhof","","50.540927","9.83332","2070","","0","","",""
"501","","Finkenhain Birkenhof","","50.541343","9.832927","2070","","0","","",""
"502","","Finkenhain","","50.53283","9.838915","2070","","0","","",""
"503","","Finkenhain","","50.532978","9.838083","2070","","0","","",""
"504","","Findlos Ortsmitte","","50.551428","10.000575","1740","","0","","",""
"505","","Findlos Ortsmitte","","50.55147","10.000623","1740","","0","","",""
"506","","Flieden Adenmühle","","50.413403","9.566482","1925","","0","","",""
"507","","Flieden Adenmühle","","50.412868","9.566532","1925","","0","","",""
"508","","Flieden Bahnhof","","50.420888","9.57517","1925","","0","","",""
"509","","Flieden Gewerbegebiet Flieden Süd","","50.407983","9.554217","1925","","0","","",""
"510","","Flieden Gewerbegebiet Flieden Süd","","50.407737","9.553187","1925","","0","","",""
"511","","Flieden Glockenweg","","50.418522","9.565262","1925","","0","","",""
"512","","Flieden Glockenweg","","50.418623263","9.565354139","1925","","0","","",""
"513","","Flieden Abzweig Kellerei","","50.432632","9.550122","1925","","0","","",""
"514","","Flieden Abzweig Kellerei","","50.432552","9.549252","1925","","0","","",""
"515","","Flieden Reinhardstraße","","50.424073","9.56573","1925","","0","","",""
"516","","Flieden Reinhardstraße","","50.425097","9.563538","1925","","0","","",""
"517","","Flieden Waldstrasse","","50.420727","9.556162","1925","","0","","",""
"518","","Flieden Waldstrasse","","50.420738","9.556317","1925","","0","","",""
"519","","Flieden Weinbergstraße","","50.427768","9.560675","1925","","0","","",""
"520","","Flieden Weinbergstraße","","50.428457","9.560102","1925","","0","","",""
"521","","Flieden Zentrum","","50.421246556","9.56738323","1925","","0","","",""
"522","","Flieden Zentrum","","50.421262791","9.567731917","1925","","0","","",""
"523","","Flieden Zentrum","","50.420914166","9.567648768","1925","","0","","",""
"524","","Flieden Zentrum","","50.420800521","9.567892849","1925","","0","","",""
"525","","Flieden Zentstraße","","50.425312","9.568383","1925","","0","","",""
"526","","Friesenhausen B 458","","50.52808","9.830798","2070","","0","","",""
"527","","Friesenhausen B 458","","50.528203","9.828957","2070","","0","","",""
"528","","Eiterfeld Fürsteneck","","50.776033","9.808883","1653","","0","","",""
"529","","Gackenhof","","50.475503","9.875173","1801","","0","","",""
"530","","Gackenhof","","50.47551","9.875334","1801","","0","","",""
"531","","Geisa Bahnhof","","50.717506","9.956989","1669","","0","","",""
"532","","Geisa Point Alpha","","50.719412","9.928417","1669","","0","","",""
"533","","Gersfeld Abzw. Maiersbach","","50.454762","9.896905","1847","","0","","",""
"534","","Gersfeld Bahnhof","","50.4493","9.915603","1847","","0","","",""
"535","","Schletzenhausen Gersrod","","50.526575","9.488312","2101","","0","","",""
"536","","Schletzenhausen Gersrod","","50.526613","9.488445","2101","","0","","",""
"537","","Giesenhain","","50.765415","9.740017","1618","","0","","",""
"538","","Giesenhain","","50.765407","9.740047","1618","","0","","",""
"539","","Giesel Raiffeisen","","50.504063","9.56661","1930","","0","","",""
"540","","Giesel Sommerberg","","50.508737","9.571982","1930","","0","","",""
"541","","Gläserzell Abt-Hadamar-Straße","","50.58087","9.646988","2001","","0","","",""
"542","","Großenlüder Bahnhof","","50.59199","9.549787","2109","","0","","",""
"543","","Großenlüder Ortsmitte","","50.589855","9.540643","2109","","0","","",""
"544","","Großenlüder Ortsmitte","","50.59005","9.540555","2109","","0","","",""
"545","","Großenlüder Schule","","50.58607","9.548513","2109","","0","","",""
"546","","Großenlüder Schlitzer Straße","","50.59479","9.539333","2109","","0","","",""
"547","","Großenlüder Schlitzer Straße","","50.594827","9.539273","2109","","0","","",""
"548","","Gotthards Kermes","","50.620637","9.893225","1640","","0","","",""
"549","","Gotthards Kermes","","50.62068","9.89339","1640","","0","","",""
"550","","Gotthards","","50.622337","9.901362","1640","","0","","",""
"551","","Gotthards","","50.62202","9.90145","1640","","0","","",""
"552","","Großenmoor","","50.702363","9.652708","1613","","0","","",""
"553","","Großenmoor","","50.702433","9.652408","1613","","0","","",""
"554","","Großenbach Kirche","","50.686085","9.80138","1645","","0","","",""
"555","","Großenbach Linkbergstraße","","50.684993","9.801178","1645","","0","","",""
"556","","Großenbach Linkbergstraße","","50.685302","9.800655","1645","","0","","",""
"557","","Großenbach Ortseingang","","50.6833","9.795877","1645","","0","","",""
"558","","Großenbach Ortseingang","","50.682095","9.792087","1645","","0","","",""
"559","","Großentaft Ortsmitte","","50.741653","9.858427","1658","","0","","",""
"560","","Großentaft Ortsmitte","","50.741418","9.858235","1658","","0","","",""
"561","","Großentaft Hauptstraße","","50.742558","9.864232","1658","","0","","",""
"562","","Gruben","","50.694503","9.749853","1650","","0","","",""
"563","","Gruben","","50.695088","9.750212","1650","","0","","",""
"564","","Grüsselbach Felsenkeller","","50.736552","9.923062","1630","","0","","",""
"565","","Grüsselbach Felsenkeller","","50.736327","9.922928","1630","","0","","",""
"566","","Grüsselbach Ortsmitte","","50.740682","9.920485","1630","","0","","",""
"567","","Götzenhof Milseburgradweg","","50.577705","9.718058","2065","","0","","",""
"568","","Götzenhof","","50.579327","9.716585","2065","","0","","",""
"569","","Götzenhof","","50.579818","9.717195","2065","","0","","",""
"570","","Günthers DGH","","50.658397","9.992048","1710","","0","","",""
"571","","Günthers DGH","","50.658458","9.992277","1710","","0","","",""
"572","","Günthers Wartburgstraße","","50.659605","9.995943","1710","","0","","",""
"573","","Günthers Wartburgstraße","","50.659602","9.995753","1710","","0","","",""
"574","","Höf und Haid Dirlosborn","","50.408845","9.518128","1925","","0","","",""
"575","","Höf und Haid Dirlosborn","","50.409083","9.517852","1925","","0","","",""
"576","","Höf und Haid Fuldaische Höfe","","50.39181","9.539138","1925","","0","","",""
"577","","Höf und Haid Haid","","50.410513","9.512645","1925","","0","","",""
"578","","Höf und Haid Haid","","50.410413","9.512667","1925","","0","","",""
"579","","Höf und Haid Kautz","","50.401782","9.546115","1925","","0","","",""
"580","","Höf und Haid Kautz","","50.401413","9.545772","1925","","0","","",""
"581","","Höf und Haid Laugendorf","","50.403615","9.528237","1925","","0","","",""
"582","","Höf und Haid Laugendorf","","50.403658","9.528277","1925","","0","","",""
"583","","Habel Habelgraben Abzweig","","50.627433","9.987992","1710","","0","","",""
"584","","Habel Habelgraben Abzweig","","50.627407","9.98803","1710","","0","","",""
"585","","Habel","","50.635292","9.97595","1710","","0","","",""
"586","","Habel","","50.635213","9.975872","1710","","0","","",""
"587","","Haimbach Sonnenstraße","","50.548802","9.632382","2001","","0","","",""
"588","","Haimbach Sonnenstraße","","50.548867","9.632475","2001","","0","","",""
"589","","Haimbach Kirche","","50.547257","9.626348","2001","","0","","",""
"590","","Haimbach Kirche","","50.547238","9.626125","2001","","0","","",""
"591","","Haimbach Rehweg","","50.548187","9.626268","2001","","0","","",""
"592","","Haimbach Schule","","50.546742","9.625622","2001","","0","","",""
"593","","Haimbach Sportplatz","","50.548795","9.622135","2001","","0","","",""
"594","","Haimbach Sportplatz","","50.548708","9.622358","2001","","0","","",""
"595","","Harmerz Grenadierstraße","","50.515458","9.651058","2001","","0","","",""
"596","","Harmerz Grenadierstraße","","50.515658","9.651175","2001","","0","","",""
"597","","Harmerz Hellersgrundstraße","","50.513907","9.652077","2001","","0","","",""
"598","","Harmerz Hellersgrundstraße","","50.513857","9.652205","2001","","0","","",""
"599","","Harmerz Husarenweg","","50.518842","9.656898","2001","","0","","",""
"600","","Harmerz Husarenweg","","50.51896","9.657103","2001","","0","","",""
"601","","Harmerz Pionierstraße","","50.520485","9.654617","2001","","0","","",""
"602","","Harmerz Pionierstraße","","50.52042","9.654858","2001","","0","","",""
"603","","Harmerz Ulanenstraße","","50.516175","9.653055","2001","","0","","",""
"604","","Harmerz Ulanenstraße","","50.515973","9.652885","2001","","0","","",""
"605","","Haselstein Großenbacher Straße","","50.68158","9.853412","1639","","0","","",""
"606","","Haselstein Großenbacher Straße","","50.681457","9.853373","1639","","0","","",""
"607","","Hattenhof Büchenberger Straße","","50.463772","9.677118","1950","","0","","",""
"608","","Hattenhof Büchenberger Straße","","50.463693","9.67712","1950","","0","","",""
"609","","Hattenhof Bürgerhaus","","50.46909","9.673685","1950","","0","","",""
"610","","Hattenhof Bürgerhaus","","50.468578","9.673852","1950","","0","","",""
"611","","Hattenhof Nußbach Kreuz","","50.46293","9.668722","1950","","0","","",""
"612","","Hattenhof Nußbach Kreuz","","50.462852","9.668543","1950","","0","","",""
"613","","Hattenhof Schule","","50.466155","9.677612","1950","","0","","",""
"614","","Hattenhof Schule","","50.466078","9.677485","1950","","0","","",""
"615","","Hattenhof Ziegelrain","","50.463887","9.675107","1950","","0","","",""
"616","","Hattenhof Ziegelrain","","50.46411","9.675107","1950","","0","","",""
"617","","Hauswurz Brandloser Straße","","50.464703","9.475895","1942","","0","","",""
"618","","Hauswurz Brandloser Straße","","50.464768","9.475943","1942","","0","","",""
"619","","Hauswurz Forsthaus","","50.461692","9.48836","1942","","0","","",""
"620","","Hauswurz Forsthaus","","50.46171","9.488457","1942","","0","","",""
"621","","Hauswurz Taufsteinstraße","","50.462073","9.4773","1942","","0","","",""
"622","","Hechelmannskirchen","","50.706947","9.642278","1613","","0","","",""
"623","","Hechelmannskirchen","","50.707087","9.641987","1613","","0","","",""
"624","","Herdathurm","","50.622178","10.024857","1710","","0","","",""
"625","","Herdathurm","","50.622218","10.02479","1710","","0","","",""
"626","","Heubach Rathaus","","50.384193","9.718262","1935","","0","","",""
"627","","Heubach Rathaus","","50.384232","9.718518","1935","","0","","",""
"628","","Heubach Sägewerk","","50.382685","9.711708","1935","","0","","",""
"629","","Heubach Sägewerk","","50.382953","9.711928","1935","","0","","",""
"630","","Hilders Feriengebiet","","50.576205","10.015477","1740","","0","","",""
"631","","Hilders Feriengebiet","","50.576532","10.015378","1740","","0","","",""
"632","","Hilders Konrad-Zuse-Schule","","50.574167","10.000895","1740","","0","","",""
"633","","Hilders Marktstraße","","50.571927","10.00163","1740","","0","","",""
"634","","Hilders Marktstraße","","50.571928","10.002385","1740","","0","","",""
"635","","Hilders Milseburgradweg","","50.571047","9.997407","1740","","0","","",""
"636","","Hilders MPS","","50.577093","9.997077","1740","","0","","",""
"637","","Hilders MPS","","50.576968","9.997123","1740","","0","","",""
"638","","Hilders MPS","","50.576813","9.99712","1740","","0","","",""
"639","","Hilders MPS","","50.576758","9.997142","1740","","0","","",""
"640","","Hilders MPS","","50.575385","9.998017","1740","","0","","",""
"641","","Hilders MPS","","50.575303","9.998173","1740","","0","","",""
"642","","Hilders ZOB","","50.570323748","10.001607388","1740","","0","","",""
"643","","Hainzell Brücke","","50.543019807","9.490787387","2101","","0","","",""
"644","","Hainzell Brücke","","50.542957592","9.490862489","2101","","0","","",""
"645","","Hainzell Ortsmitte","","50.539927","9.492025","2101","","0","","",""
"646","","Hainzell Ortsmitte","","50.54001","9.492297","2101","","0","","",""
"647","","Hofaschenbach Ortsmitte","","50.637497","9.846212","1648","","0","","",""
"648","","Hofaschenbach Ortsmitte","","50.637517","9.846207","1648","","0","","",""
"649","","Hofbieber Egelmeser Straße","","50.589662","9.837712","2083","","0","","",""
"650","","Hofbieber Egelmeser Straße","","50.589862","9.83773","2083","","0","","",""
"651","","Hofaschenbach Hünfelder Straße","","50.636807","9.843307","1648","","0","","",""
"652","","Hofaschenbach Hünfelder Straße","","50.636923","9.843007","1648","","0","","",""
"653","","Hofbieber Langenbieberer Straße","","50.583368","9.838675","2083","","0","","",""
"654","","Hofbieber Langenbieberer Straße","","50.583445","9.838662","2083","","0","","",""
"655","","Hofbieber Ortsmitte","","50.586363","9.837203","2083","","0","","",""
"656","","Hofbieber Ortsmitte","","50.5868","9.837547","2083","","0","","",""
"657","","Hofaschenbach Rathaus","","50.633407","9.846688","1648","","0","","",""
"658","","Hofaschenbach Rathaus","","50.633237","9.846588","1648","","0","","",""
"659","","Hofaschenbach Rathaus","","50.631652","9.846421","1648","","0","","",""
"660","","Hofbieber Weihershof","","50.586418","9.856715","2083","","0","","",""
"661","","Hofbieber Weihershof","","50.587823","9.859323","2083","","0","","",""
"662","","Hosenfeld Lindenstraße","","50.502025","9.477338","2127","","0","","",""
"663","","Hosenfeld Lindenstraße","","50.502025","9.477298","2127","","0","","",""
"664","","Hosenfeld Ortsmitte","","50.50568","9.478882","2127","","0","","",""
"665","","Hosenfeld Ortsmitte","","50.50553","9.478847","2127","","0","","",""
"666","","Hosenfeld Schule","","50.505828","9.475113","2127","","0","","",""
"667","","Hosenfeld Schwimmbad","","50.512702","9.477852","2127","","0","","",""
"668","","Hosenfeld Schwimmbad","","50.51268","9.477783","2127","","0","","",""
"669","","Hundsbach","","50.622522","10.040065","1710","","0","","",""
"670","","Hünfeld Arbeitsamt","","50.667878","9.762547","1645","","0","","",""
"671","","Hünfeld Arbeitsamt","","50.66793","9.762542","1645","","0","","",""
"672","","Hünfeld Bahnhof","","50.672247","9.763578","1645","","0","","",""
"673","","Hünfeld Bahnhof","","50.672483","9.763522","1645","","0","","",""
"674","","Hünfeld Bahnhof","","50.67265","9.763483","1645","","0","","",""
"675","","Hünfeld Bahnhof","","50.672442","9.763617","1645","","0","","",""
"676","","Hünfeld Bahnhof","","50.672067","9.763617","1645","","0","","",""
"677","","Hünfeld Freizeitanlage Tiergarten","","50.664002","9.774295","1645","","0","","",""
"678","","Hünfeld Freizeitanlage Tiergarten","","50.664187","9.774623","1645","","0","","",""
"679","","Hünfeld Hallenbad","","50.672717","9.769437","1645","","0","","",""
"680","","Hünfeld Hallenbad","","50.672693","9.769427","1645","","0","","",""
"681","","Hünhan","","50.69071","9.73358","1650","","0","","",""
"682","","Hünhan","","50.690588","9.733783","1650","","0","","",""
"683","","Hünfeld Heliosklinik","","50.664167","9.766733","1645","","0","","",""
"684","","Hünfeld Heliosklinik","","50.664125","9.766838","1645","","0","","",""
"685","","Hünfeld Industriegebiet","","50.686145","9.75643","1645","","0","","",""
"686","","Hünfeld Industriegebiet","","50.68625","9.756415","1645","","0","","",""
"687","","Hünfeld J.A.F.-Schule","","50.678285","9.764963","1645","","0","","",""
"688","","Hünfeld Molzbacher Berg","","50.669278","9.784705","1645","","0","","",""
"689","","Hünfeld Molzbacher Berg","","50.669327","9.783452","1645","","0","","",""
"690","","Hünfeld Nordend","","50.680053","9.762148","1645","","0","","",""
"691","","Hünfeld Nordend","","50.679995","9.762228","1645","","0","","",""
"692","","Hünfeld Schulzentrum","","50.668288","9.77008","1645","","0","","",""
"693","","Hünfeld Rasdorfer Straße","","50.680245","9.771922","1645","","0","","",""
"694","","Hünfeld Rasdorfer Straße","","50.680042","9.770983","1645","","0","","",""
"695","","Hünfeld Schulzentrum","","50.66751","9.770057","1645","","0","","",""
"696","","Hünfeld Schulzentrum","","50.667195","9.770037","1645","","0","","",""
"697","","Hünfeld Schulzentrum","","50.666972","9.77006","1645","","0","","",""
"698","","Hünfeld Schulzentrum","","50.666838","9.77014","1645","","0","","",""
"699","","Hünfeld Schulzentrum","","50.666718","9.76994","1645","","0","","",""
"700","","Hünfeld Schulzentrum","","50.666517","9.769897","1645","","0","","",""
"701","","Hünfeld Schulzentrum","","50.666345","9.769835","1645","","0","","",""
"702","","Hünfeld Schulzentrum","","50.666153","9.769818","1645","","0","","",""
"703","","Hünfeld Schulzentrum","","50.666083","9.769832","1645","","0","","",""
"704","","Istergiesel","","50.516238","9.607435","2001","","0","","",""
"705","","Johannesberg Am Zirkenbacher Kreuz","","50.520535","9.651182","2001","","0","","",""
"706","","Johannesberg Am Zirkenbacher Kreuz","","50.52055","9.651262","2001","","0","","",""
"707","","Johannesberg Lagerfeld","","50.524602","9.659872","2001","","0","","",""
"708","","Johannesberg Lagerfeld","","50.524645","9.659783","2001","","0","","",""
"709","","Johannesberg Propstei","","50.523423","9.660687","2001","","0","","",""
"710","","Johannesberg Propstei","","50.523543","9.660502","2001","","0","","",""
"711","","Johannesberg Vereinszentrum","","50.52173","9.656108","2001","","0","","",""
"712","","Jossa","","50.48965","9.451447","2128","","0","","",""
"713","","Jossa","","50.490362","9.451948","2128","","0","","",""
"714","","Jossa Schlingenmühle","","50.496775","9.46044","2128","","0","","",""
"715","","Jossa Schlingenmühle","","50.496857","9.460745","2128","","0","","",""
"716","","Kauppen","","50.455473","9.490372","1942","","0","","",""
"717","","Kerzell Ortsmitte","","50.48642","9.670103","1818","","0","","",""
"718","","Kerzell Ortsmitte","","50.486438","9.669705","1818","","0","","",""
"719","","Keulos Haunestraße","","50.540558","9.74211","2045","","0","","",""
"720","","Keulos Haunestraße","","50.540283","9.742142","2045","","0","","",""
"721","","Keulos Am Noppen","","50.542507","9.73551","2045","","0","","",""
"722","","Keulos Am Noppen","","50.542543","9.735627","2045","","0","","",""
"723","","Keulos Am Noppen","","50.538752","9.736847","2045","","0","","",""
"724","","Kleinfischbach","","50.624843","10.073763","1710","","0","","",""
"725","","Kirchhasel Dorfplatz","","50.701157","9.800917","1645","","0","","",""
"726","","Kirchhasel Georgstraße","","50.699972","9.802543","1645","","0","","",""
"727","","Kirchhasel Georgstraße","","50.700213","9.803115","1645","","0","","",""
"728","","Kirchhasel Neuwirtshaus","","50.699172","9.815558","1645","","0","","",""
"729","","Kirchhasel Neuwirtshaus","","50.69922","9.815407","1645","","0","","",""
"730","","Burghaun Klausmarbach","","50.716025","9.741448","1650","","0","","",""
"731","","Kleinsassen Kunststation","","50.554068","9.875845","1701","","0","","",""
"732","","Kleinsassen Kunststation","","50.554045","9.875912","1701","","0","","",""
"733","","Kleinsassen Rhönringstraße","","50.551502","9.874023","1701","","0","","",""
"734","","Kleinsassen Rhönringstraße","","50.55147","9.874027","1701","","0","","",""
"735","","Kleinlüder Karlstraße","","50.545615","9.517962","2122","","0","","",""
"736","","Kleinlüder Karlstraße","","50.545492","9.51817","2122","","0","","",""
"737","","Kleinlüder Kirche","","50.548968","9.515498","2122","","0","","",""
"738","","Kleinlüder Mühlenstraße","","50.54773","9.51612","2122","","0","","",""
"739","","Kleinlüder Mühlenstraße","","50.548123","9.515992","2122","","0","","",""
"740","","Fulda Kohlhaus Ortesweg","","50.528533","9.67932","2001","","0","","",""
"741","","Fulda Kohlhaus Ortesweg","","50.528595","9.679333","2001","","0","","",""
"742","","Kämmerzell Kirche","","50.600236","9.641364","2001","","0","","",""
"743","","Kämmerzell Schulbushaltestelle","","50.595453822","9.645984024","2001","","0","","",""
"744","","Körnbach Dittlofroder Straße","","50.754967","9.765757","1653","","0","","",""
"745","","Körnbach Dittlofroder Straße","","50.754925","9.765865","1653","","0","","",""
"746","","Künzell Sieben Welten","","50.538618","9.72249","2030","","0","","",""
"747","","Künzell Abzweig Pilgerzell","","50.528922","9.731082","2030","","0","","",""
"748","","Künzell Abzweig Pilgerzell","","50.529035","9.730517","2030","","0","","",""
"749","","Künzell Brandenburger Straße","","50.551626524","9.725769013","2001","","0","","",""
"750","","Künzell Brandenburger Straße","","50.551627","9.725768","2001","","0","","",""
"751","","Künzell Dicker Turm","","50.532743","9.722163","2030","","0","","",""
"752","","Künzell Dicker Turm","","50.532658","9.722228","2030","","0","","",""
"753","","Künzell Dirloser Str","","50.533943","9.722546","2030","","0","","",""
"754","","Künzell Eisenacher Straße","","50.537777","9.71416","2030","","0","","",""
"755","","Künzell Fuldaer Straße","","50.54423","9.711398","2030","","0","","",""
"756","","Künzell Fuldaer Straße","","50.544547","9.71132","2030","","0","","",""
"757","","Künzell Gemeindezentrum","","50.540115","9.712357","2030","","0","","",""
"758","","Künzell Gemeindezentrum","","50.54003","9.712048","2030","","0","","",""
"759","","Künzell Grezzbachstraße","","50.544153","9.715708","2030","","0","","",""
"760","","Künzell Grezzbachstraße","","50.544123","9.715798","2030","","0","","",""
"761","","Künzell Harbacher Weg","","50.543032","9.720252","2030","","0","","",""
"762","","Künzell Justus-Liebig-Center","","50.552273","9.720795","2001","","0","","",""
"763","","Künzell Kastanienweg","","50.54268316","9.7284244","2030","","0","","",""
"764","","Künzell Kastanienweg","","50.54252975","9.728287607","2030","","0","","",""
"765","","Künzell Keuloser Straße","","50.544578","9.722283","2030","","0","","",""
"766","","Künzell Keuloser Straße","","50.544572","9.722347","2030","","0","","",""
"767","","Künzell Lanneshof","","50.553343","9.737788","2078","","0","","",""
"768","","Künzell Lanneshof","","50.55321","9.737898","2078","","0","","",""
"769","","Lahrbach Eisenacher Straße","","50.622348","10.004752","1710","","0","","",""
"770","","Lahrbach Eisenacher Straße","","50.622437","10.004943","1710","","0","","",""
"771","","Lahrbach Lindenplatz","","50.621225","10.003208","1710","","0","","",""
"772","","Lahrbach Lindenplatz","","50.62133","10.00291","1710","","0","","",""
"773","","Lehnerz Burgweg","","50.571580102","9.699433744","2001","","0","","",""
"774","","Lehnerz Burgweg","","50.571316909","9.699213803","2001","","0","","",""
"775","","Lehnerz EDAG","","50.575157","9.70574","2001","","0","","",""
"776","","Lehnerz EDAG","","50.575182","9.705802","2001","","0","","",""
"777","","Lehnerz Gewerbegebiet","","50.574785","9.69088","2001","","0","","",""
"778","","Lehnerz An der Grillenburg","","50.57389","9.70136","2001","","0","","",""
"779","","Lehnerz An der Grillenburg","","50.574353","9.701755","2001","","0","","",""
"780","","Lehnerz Marie-Curie-Straße","","50.572753","9.690071","2001","","0","","",""
"781","","Lehnerz Steinauer Straße","","50.573608","9.7027","2001","","0","","",""
"782","","Lehnerz Steinauer Straße","","50.573837","9.703003","2001","","0","","",""
"783","","Leimbach Betzenroder Straße","","50.749208","9.789772","1653","","0","","",""
"784","","Leimbach Betzenroder Straße","","50.749055","9.789823","1653","","0","","",""
"785","","Leibolz","","50.753417","9.822283","1653","","0","","",""
"786","","Leibolz","","50.753283","9.822297","1653","","0","","",""
"787","","Leimbach Malgeser Straße","","50.747848","9.790102","1653","","0","","",""
"788","","Leimbach Malgeser Straße","","50.74776","9.790037","1653","","0","","",""
"789","","Leibolz Mittelstraße","","50.751135","9.82068","1653","","0","","",""
"790","","Leibolz Mittelstraße","","50.751172","9.820777","1653","","0","","",""
"791","","Langenbieber Bieberstein","","50.572672","9.859827","2083","","0","","",""
"792","","Langenbieber Bieberstein","","50.572533","9.859927","2083","","0","","",""
"793","","Langenbieber Hofbieberer Straße","","50.574113","9.837125","2083","","0","","",""
"794","","Langenbieber Hofbieberer Straße","","50.574193","9.837127","2083","","0","","",""
"795","","Langenbieber Ortsmitte","","50.573327","9.833877","2083","","0","","",""
"796","","Langenbieber Ortsmitte","","50.573348","9.833855","2083","","0","","",""
"797","","Langenbieber Wadbergstraße","","50.569693","9.831455","2083","","0","","",""
"798","","Langenbieber Wadbergstraße","","50.569775","9.83151","2083","","0","","",""
"799","","Liebhards","","50.56671","9.949172","1740","","0","","",""
"800","","Liebhards","","50.566302","9.94927","1740","","0","","",""
"801","","Liebhards Steinbach","","50.557347","9.92026","1740","","0","","",""
"802","","Langenschwarz Hauptstraße","","50.719367","9.632898","1613","","0","","",""
"803","","Löschenrod Ortsmitte","","50.497633","9.678845","1802","","0","","",""
"804","","Lüdermünd","","50.608432141","9.618723392","2001","","0","","",""
"805","","Lütterz","","50.594828","9.595661","2109","","0","","",""
"806","","Lütterz","","50.594908","9.595717","2109","","0","","",""
"807","","Maberzell Am Berg","","50.565921","9.624715","2001","","0","","",""
"808","","Mittelaschenbach","","50.646037","9.860175","1648","","0","","",""
"809","","Mittelaschenbach Haselsteiner Straße","","50.645278","9.857848","1648","","0","","",""
"810","","Mittelaschenbach Haselsteiner Straße","","50.644957","9.857362","1648","","0","","",""
"811","","Maberzell Am Karlshof","","50.564397","9.63726","2001","","0","","",""
"812","","Maberzell Am Karlshof","","50.564565","9.636705","2001","","0","","",""
"813","","Maberzell Nikolaus-Seng-Straße","","50.563332","9.630727","2001","","0","","",""
"814","","Maberzell Nikolaus-Seng-Straße","","50.562513","9.631113","2001","","0","","",""
"815","","Maberzell Zum Schulzenberg","","50.560378","9.633863","2001","","0","","",""
"816","","Maberzell Zum Schulzenberg","","50.560537","9.633188","2001","","0","","",""
"817","","Maberzell Am Schlüsselacker","","50.558638","9.636087","2001","","0","","",""
"818","","Maberzell Am Schlüsselacker","","50.558508","9.636145","2001","","0","","",""
"819","","Maberzell Am Trätzberg","","50.583348","9.627733","2001","","0","","",""
"820","","Maberzell Am Weiher","","50.58109","9.62435","2001","","0","","",""
"821","","Maberzell Am Weiher","","50.580942","9.624243","2001","","0","","",""
"822","","Mackenzell Hünfelder Straße","","50.661127","9.786067","1645","","0","","",""
"823","","Mackenzell Hünfelder Straße","","50.660888","9.786357","1645","","0","","",""
"824","","Mackenzell Schule","","50.656902","9.789172","1645","","0","","",""
"825","","Mackenzell Schule","","50.657015","9.789132","1645","","0","","",""
"826","","Margretenhaun Backhaus","","50.56561","9.76034","2035","","0","","",""
"827","","Margretenhaun Backhaus","","50.56552","9.759793","2035","","0","","",""
"828","","Magdlos Berishof","","50.427822","9.536337","1925","","0","","",""
"829","","Magdlos Berishof","","50.427707","9.536338","1925","","0","","",""
"830","","Magdlos","","50.425875","9.514283","1925","","0","","",""
"831","","Magdlos Federwisch","","50.426225","9.524347","1925","","0","","",""
"832","","Magdlos Federwisch","","50.426282","9.524215","1925","","0","","",""
"833","","Maiersbach","","50.465087","9.902912","1847","","0","","",""
"834","","Maiersbach Rhönakademie","","50.470495","9.877952","1847","","0","","",""
"835","","Maiersbach Wachtküppel","","50.467652","9.889177","1847","","0","","",""
"836","","Malges","","50.731133","9.801005","1629","","0","","",""
"837","","Malges","","50.730218","9.802312","1629","","0","","",""
"838","","Malges","","50.72962","9.801092","1629","","0","","",""
"839","","Malkes","","50.557233","9.581905","2001","","0","","",""
"840","","Marbach Bachstraße","","50.618575","9.718505","2065","","0","","",""
"841","","Marbach Damian-Schmitt-Straße","","50.618752","9.724198","2065","","0","","",""
"842","","Marbach Im Eichsfeld","","50.61454","9.71775","2065","","0","","",""
"843","","Marbach Kiliansplatz","","50.620468","9.720908","2065","","0","","",""
"844","","Marbach Tromliedeweg","","50.621958","9.724435","2065","","0","","",""
"845","","Melperts Kreuzbergstraße","","50.513292","10.016867","1747","","0","","",""
"846","","Melperts Kreuzbergstraße","","50.512603","10.016375","1747","","0","","",""
"847","","Melperts Ortsmitte","","50.51298","10.012103","1747","","0","","",""
"848","","Melzdorf","","50.57878","9.750497","2035","","0","","",""
"849","","Mengers","","50.795423","9.785922","1663","","0","","",""
"850","","Michelsrombach Königsküppel","","50.659403","9.673672","1601","","0","","",""
"851","","Michelsrombach Ortsmitte","","50.662513","9.660788","1601","","0","","",""
"852","","Michelsrombach Schule","","50.6602","9.664897","1601","","0","","",""
"853","","Milseburg Haltepunkt","","50.559375","9.906955","1728","","0","","",""
"854","","Milseburg Haltepunkt","","50.559387","9.906925","1728","","0","","",""
"855","","Mittelrode Backhaus","","50.539733","9.607078","2001","","0","","",""
"856","","Mittelrode","","50.540465","9.607293","2001","","0","","",""
"857","","Mittelrode","","50.540567","9.607443","2001","","0","","",""
"858","","Mittelkalbach Bucheller","","50.400502","9.625217","1901","","0","","",""
"859","","Mittelkalbach Grashof","","50.405447","9.62598","1901","","0","","",""
"860","","Mittelkalbach Hofwiese","","50.427085","9.63946","1901","","0","","",""
"861","","Mittelkalbach Hofwiese","","50.42672","9.639017","1901","","0","","",""
"862","","Mittelkalbach Sebastianstraße","","50.419997","9.647125","1901","","0","","",""
"863","","Mittelkalbach Veitsteinbacher Straße","","50.423258","9.641038","1901","","0","","",""
"864","","Mittelkalbach Gemeindeverwaltung","","50.423782","9.641273","1901","","0","","",""
"865","","Mollartshof","","50.624227","9.998833","1710","","0","","",""
"866","","Mollartshof","","50.624253","9.999028","1710","","0","","",""
"867","","Molzbach Ortsmitte","","50.666557","9.800952","1645","","0","","",""
"868","","Molzbach Ortsmitte","","50.666516","9.800915","1645","","0","","",""
"869","","Morles Hauptstraße","","50.629555","9.849955","1648","","0","","",""
"870","","Morles Hauptstraße","","50.629435","9.850237","1648","","0","","",""
"871","","Morles Ortsmitte","","50.629103","9.848245","1648","","0","","",""
"872","","Morles Ortsmitte","","50.62811","9.847775","1648","","0","","",""
"873","","Mosbach","","50.444353","9.94789","1847","","0","","",""
"874","","Mittelrode Im Mühlfeld","","50.541153","9.6023","2001","","0","","",""
"875","","Mittelrupsroth","","50.546623","9.93503","1728","","0","","",""
"876","","Mittelrupsroth","","50.54663","9.935","1728","","0","","",""
"877","","Müs Eichenauer Straße","","50.594985","9.504853","2109","","0","","",""
"878","","Müs Eichenauer Straße","","50.594928","9.504852","2109","","0","","",""
"879","","Müs Ortsmitte","","50.59096","9.504348","2109","","0","","",""
"880","","Müs Ortsmitte","","50.591018","9.504415","2109","","0","","",""
"881","","Neustädtges","","50.621257","9.992972","1710","","0","","",""
"882","","Neustädtges","","50.621513","9.993373","1710","","0","","",""
"883","","Neuswarts","","50.659328","9.970973","1710","","0","","",""
"884","","Neuhof Alte Heerstraße","","50.461408","9.618697","1920","","0","","",""
"885","","Neuhof Alte Heerstraße","","50.461447","9.618703","1920","","0","","",""
"886","","Neuhof Albert-Schweitzer-Schule","","50.44906","9.611722","1920","","0","","",""
"887","","Neuhof Bahnhof","","50.452404764","9.619725198","1920","","0","","",""
"888","","Neuhof Bahnhof","","50.452404764","9.619725198","1920","","0","","",""
"889","","Neuhof Engelsburg","","50.458058","9.62962","1920","","0","","",""
"890","","Neuhof Engelsburg","","50.458041","9.629739","1920","","0","","",""
"891","","Neuhof Erlenhöfe","","50.432112","9.612493","1920","","0","","",""
"892","","Neuhof Erlenhöfe","","50.432193","9.612808","1920","","0","","",""
"893","","Neuhof Gieseler Straße","","50.458655","9.610562","1920","","0","","",""
"894","","Neuhof Gieseler Straße","","50.458543","9.610505","1920","","0","","",""
"895","","Neuhof Lindenweg","","50.458682","9.616905","1920","","0","","",""
"896","","Neuhof Lindenweg","","50.45784","9.616137","1920","","0","","",""
"897","","Neuhof Opperz","","50.449368","9.619202","1920","","0","","",""
"898","","Neuhof Opperz","","50.449613","9.619498","1920","","0","","",""
"899","","Neuhof Rettungszentrum","","50.444935","9.626112","1946","","0","","",""
"900","","Neuhof Rettungszentrum","","50.444873","9.62628","1946","","0","","",""
"901","","Neuhof Rommerzer Straße","","50.454027","9.610295","1920","","0","","",""
"902","","Neuhof Rommerzer Straße","","50.454795","9.612323","1920","","0","","",""
"903","","Neuhof Schlossschule","","50.453325","9.616487","1920","","0","","",""
"904","","Neuhof Wiesenweg","","50.454862","9.60352","1920","","0","","",""
"905","","Neuhof Wiesenweg","","50.454822","9.603757","1920","","0","","",""
"906","","Neuhof Zollweg","","50.452895","9.61614","1920","","0","","",""
"907","","Neuhof Zollweg","","50.454007","9.61448","1920","","0","","",""
"908","","Neuhof J.-Kep.-Schule","","50.446772915","9.630783945","1946","","0","","",""
"909","","Neuhof J.-Kep.-Schule","","50.446809637","9.630423188","1946","","0","","",""
"910","","Neuhof J.-Kep.-Schule","","50.446871979","9.629859924","1946","","0","","",""
"911","","Neuhof J.-Kep.-Schule","","50.446907848","9.629520625","1946","","0","","",""
"912","","Neuhof J.-Kep.-Schule","","50.446607237","9.629483074","1946","","0","","",""
"913","","Neuhof J.-Kep.-Schule","","50.446574784","9.629819691","1946","","0","","",""
"914","","Neuhof J.-Kep.-Schule","","50.446510733","9.630378932","1946","","0","","",""
"915","","Neuhof J.-Kep.-Schule","","50.446485113","9.630584121","1946","","0","","",""
"916","","Neuhof J.-Kep.-Schule","","50.446809637","9.629177302","1946","","0","","",""
"917","","Niederröder Höhe","","50.524963","9.618165","2001","","0","","",""
"918","","Niederrode Ortsmitte","","50.528914","9.619319","2001","","0","","",""
"919","","Niederrode Ortsmitte","","50.528797","9.619794","2001","","0","","",""
"920","","Niederbieber","","50.580038","9.802552","2074","","0","","",""
"921","","Niederbieber","","50.580102","9.802332","2074","","0","","",""
"922","","Niesig Gerloser Weg","","50.574107","9.674957","2001","","0","","",""
"923","","Niesig Gerloser Weg","","50.574742","9.675718","2001","","0","","",""
"924","","Niesig Gerloser Weg","","50.573452","9.674262","2001","","0","","",""
"925","","Niesig Am Gerlos","","50.581868","9.673983","2001","","0","","",""
"926","","Niesig Lehnerzer Straße","","50.577532","9.680953","2001","","0","","",""
"927","","Niesig Lehnerzer Straße","","50.577848","9.681313","2001","","0","","",""
"928","","Niesig Am Sandberg","","50.580377","9.67988","2001","","0","","",""
"929","","Niesig Am Sandberg","","50.580588","9.679573","2001","","0","","",""
"930","","Niesig Ottilienschule","","50.57729332","9.680152684","2001","","0","","",""
"931","","Niesig Ottilienschule","","50.577180051","9.679972976","2001","","0","","",""
"932","","Niesig Im Wiesengrund","","50.57181","9.67689","2001","","0","","",""
"933","","Niesig Im Wiesengrund","","50.572047","9.676822","2001","","0","","",""
"934","","Niederkalbach Gartenstraße","","50.43377","9.637105","1901","","0","","",""
"935","","Niederkalbach Gartenstraße","","50.433437","9.636972","1901","","0","","",""
"936","","Niederkalbach Kirche","","50.436725","9.637168","1901","","0","","",""
"937","","Niederkalbach Kirche","","50.437538","9.636863","1901","","0","","",""
"938","","Neuschwambach","","50.59413","9.98099","1713","","0","","",""
"939","","Neuschwambach","","50.594255","9.980862","1713","","0","","",""
"940","","Nüst Brückenmühle","","50.66166","9.754613","1645","","0","","",""
"941","","Nüst Brückenmühle","","50.66154","9.754502","1645","","0","","",""
"942","","Nüst","","50.660153","9.761648","1645","","0","","",""
"943","","Nüst","","50.660192","9.761672","1645","","0","","",""
"944","","Oberaschenbach","","50.654853","9.864782","1648","","0","","",""
"945","","Oberbernhards","","50.556743","9.903765","1728","","0","","",""
"946","","Oberbernhards","","50.556723","9.9037","1728","","0","","",""
"947","","Oberfeld","","50.650308","9.697127","1601","","0","","",""
"948","","Oberfeld","","50.650263","9.697187","1601","","0","","",""
"949","","Obernhausen","","50.479583","9.943303","1847","","0","","",""
"950","","Obernhausen","","50.479622","9.943158","1847","","0","","",""
"951","","Obernüst","","50.616243","9.937258","1725","","0","","",""
"952","","Obernüst","","50.616228","9.93723","1725","","0","","",""
"953","","Obernüst Königsmühle","","50.614075","9.927533","1725","","0","","",""
"954","","Obernüst Königsmühle","","50.61405","9.927483","1725","","0","","",""
"955","","Oberrode Hubertusring","","50.540388","9.591717","2001","","0","","",""
"956","","Oberrode Hubertusring","","50.540423","9.591777","2001","","0","","",""
"957","","Oberrode Landesstraße","","50.540763","9.59324","2001","","0","","",""
"958","","Oberrode Landesstraße","","50.541169","9.590504","2001","","0","","",""
"959","","Oberrode Oberroder Straße","","50.537857","9.583425","2001","","0","","",""
"960","","Oberrode Sandweg","","50.533758","9.578455","2001","","0","","",""
"961","","Oberrode Am Strauch","","50.53902","9.58556","2001","","0","","",""
"962","","Oberrode Am Strauch","","50.538883","9.585775","2001","","0","","",""
"963","","Oberrode Am Vemel","","50.539252","9.582842","2001","","0","","",""
"964","","Oberweisenborn","","50.787322","9.826202","1663","","0","","",""
"965","","Oberkalbach Balzermühle","","50.409567","9.662738","1901","","0","","",""
"966","","Oberkalbach Kirche","","50.405002","9.67426","1901","","0","","",""
"967","","Oberkalbach Kirche","","50.404868","9.67514","1901","","0","","",""
"968","","Oberkalbach Zum Taufstein","","50.403985","9.680085","1901","","0","","",""
"969","","Obernüst Nüsterrasen","","50.617272","9.955538","1758","","0","","",""
"970","","Obernüst Nüsterrasen","","50.617247","9.955335","1758","","0","","",""
"971","","Obernüst Wallings","","50.62077","9.913802","1640","","0","","",""
"972","","Obernüst Wallings","","50.62038","9.913758","1640","","0","","",""
"973","","Oberrombach Forsthausstraße","","50.65851","9.684018","1601","","0","","",""
"974","","Oberrombach Forsthausstraße","","50.65833","9.68585","1601","","0","","",""
"975","","Oberrombach Oberfelder Straße","","50.657222","9.686802","1601","","0","","",""
"976","","Oberrombach Oberfelder Straße","","50.657363","9.686395","1601","","0","","",""
"977","","Oberrupsroth","","50.542505","9.939925","1728","","0","","",""
"978","","Oberrupsroth","","50.542843","9.939705","1728","","0","","",""
"979","","Oberrückersbach","","50.610448","9.965467","1713","","0","","",""
"980","","Oberrückersbach","","50.610402","9.965507","1713","","0","","",""
"981","","Stork Oberstork","","50.41656","9.488177","1925","","0","","",""
"982","","Petersberg Am Rabenstein","","50.574922","9.706578","2078","","0","","",""
"983","","Petersberg Am Rabenstein","","50.575019","9.706689","2078","","0","","",""
"984","","Petersberg Bastheimstraße","","50.552606","9.704886","2055","","0","","",""
"985","","Petersberg Berufsbildungszentrum","","50.56686","9.699142","2078","","0","","",""
"986","","Petersberg Berufsbildungszentrum","","50.566797","9.699052","2078","","0","","",""
"987","","Petersberg Dipperzer Straße","","50.553715","9.719233","2078","","0","","",""
"988","","Petersberg Dipperzer Straße","","50.553592","9.716938","2078","","0","","",""
"989","","Petersberg Evangelische Kirche","","50.553391647","9.711393714","2078","","0","","",""
"990","","Petersberg Evangelische Kirche","","50.553124944","9.710595757","2078","","0","","",""
"991","","Petersberg Horwieden","","50.565142","9.744367","2078","","0","","",""
"992","","Petersberg Horwieden","","50.565005","9.74426","2078","","0","","",""
"993","","Petersberg Hövelstraße","","50.554872","9.706353","2078","","0","","",""
"994","","Petersberg Hövelstraße","","50.554903","9.706482","2078","","0","","",""
"995","","Künzell Justus-Liebig-Center","","50.552333","9.720573","2001","","0","","",""
"996","","Petersberg Konrad-Adenauer-Schule","","50.566636","9.704142","2078","","0","","",""
"997","","Petersberg Konrad-Adenauer-Schule","","50.566572375","9.704481661","2078","","0","","",""
"998","","Petersberg Konrad-Adenauer-Schule","","50.566656","9.705147","2078","","0","","",""
"999","","Petersberg Konrad-Adenauer-Schule","","50.566781","9.705408","2078","","0","","",""
"1000","","Petersberg Konrad-Adenauer-Schule","","50.566906","9.705644","2078","","0","","",""
"1001","","Petersberg Propsteihaus","","50.559592","9.712603","2078","","0","","",""
"1002","","Petersberg Propsteihaus","","50.559827","9.712977","2078","","0","","",""
"1003","","Petersberg Quelle","","50.560315","9.708427","2078","","0","","",""
"1004","","Petersberg Quelle","","50.560278","9.70836","2078","","0","","",""
"1005","","Petersberg Rhönbergstraße","","50.55835","9.713267","2078","","0","","",""
"1006","","Petersberg Rhönbergstraße","","50.55848","9.713723","2078","","0","","",""
"1007","","Petersberg Am Roßrain","","50.561908","9.719395","2078","","0","","",""
"1008","","Petersberg Am Roßrain","","50.561557","9.71901","2078","","0","","",""
"1009","","Petersberg Am Roßrain","","50.562938642","9.719658911","2078","","0","","",""
"1010","","Petersberg Am Roßrain","","50.562941674","9.719947278","2078","","0","","",""
"1011","","Petersberg Am Roten Rain","","50.560412","9.721518","2078","","0","","",""
"1012","","Petersberg Am Roten Rain","","50.560037","9.720397","2078","","0","","",""
"1013","","Petersberg Am Roten Rain","","50.560355204","9.721303135","2078","","0","","",""
"1014","","Petersberg Sebastianshof","","50.563337","9.734445","2078","","0","","",""
"1015","","Petersberg Sebastianshof","","50.563475","9.735182","2078","","0","","",""
"1016","","Petersberg Sportanlagen","","50.56259","9.704203","2078","","0","","",""
"1017","","Petersberg Sportanlagen","","50.562673","9.704322","2078","","0","","",""
"1018","","Petersberg Stettiner Straße","","50.56061","9.698973","2001","","0","","",""
"1019","","Petersberg Stettiner Straße","","50.560562","9.699428","2001","","0","","",""
"1020","","Petersberg Weiherweg","","50.563163","9.707235","2078","","0","","",""
"1021","","Petersberg Weiherweg","","50.562912","9.707372","2078","","0","","",""
"1022","","Petersberg Alte Ziegelei","","50.556125","9.710733","2078","","0","","",""
"1023","","Petersberg Alte Ziegelei","","50.55575","9.710667","2078","","0","","",""
"1024","","Pfaffenrod","","50.488252","9.472625","2128","","0","","",""
"1025","","Pfaffenrod","","50.488382","9.473322","2128","","0","","",""
"1026","","Pilgerzell Biligrimstraße","","50.525055","9.729123","2030","","0","","",""
"1027","","Pilgerzell Florenberg","","50.523672","9.72534","2030","","0","","",""
"1028","","Pilgerzell Frankenstraße","","50.521235","9.735628","2030","","0","","",""
"1029","","Pilgerzell Kirche","","50.524932","9.728352","2030","","0","","",""
"1030","","Pilgerzell Kirche","","50.524988","9.728403","2030","","0","","",""
"1031","","Pilgerzell Wernaustraße","","50.520835","9.73152","2030","","0","","",""
"1032","","Pilgerzell Wernaustraße","","50.520145","9.732573","2030","","0","","",""
"1033","","Poppenhausen Gewerbegebiet Hugofluß","","50.491408","9.855622","1801","","0","","",""
"1034","","Poppenhausen Gewerbegebiet Hugofluß","","50.4916","9.855067","1801","","0","","",""
"1035","","Poppenhausen Kirche","","50.48819","9.867947","1801","","0","","",""
"1036","","Poppenhausen Kirche","","50.488053","9.868653","1801","","0","","",""
"1037","","Poppenrod","","50.498225","9.470428","2128","","0","","",""
"1038","","Poppenrod","","50.497973","9.469962","2128","","0","","",""
"1039","","Poppenhausen Wallweg","","50.489203","9.872107","1801","","0","","",""
"1040","","Poppenhausen Wallweg","","50.48929","9.872035","1801","","0","","",""
"1041","","Steinhaus Brücke","","50.59558","9.743938","2065","","0","","",""
"1042","","Steinau Feuerwehrhaus","","50.5941","9.735928","2065","","0","","",""
"1043","","Steinau Feuerwehrhaus","","50.59398","9.735952","2065","","0","","",""
"1044","","Steinau Hainberg","","50.583985","9.72686","2065","","0","","",""
"1045","","Steinau Hainberg","","50.58405","9.72723","2065","","0","","",""
"1046","","Steinau An der Kirche","","50.59049","9.733218","2065","","0","","",""
"1047","","Steinau An der Kirche","","50.590638","9.733267","2065","","0","","",""
"1048","","Rabennest","","50.471905","9.861825","1801","","0","","",""
"1049","","Rabennest","","50.471927","9.86179","1801","","0","","",""
"1050","","Rabennest Gasthof Ebersburg","","50.472503","9.855293","1801","","0","","",""
"1051","","Rasdorf Am Anger","","50.718162","9.897707","1630","","0","","",""
"1052","","Rasdorf Jammersweg","","50.718357","9.902802","1630","","0","","",""
"1053","","Rasdorf Jammersweg","","50.718395","9.903002","1630","","0","","",""
"1054","","Rasdorf Landstraße","","50.716698","9.89911","1630","","0","","",""
"1055","","Rasdorf Landstraße","","50.716718","9.899187","1630","","0","","",""
"1056","","Rasdorf Vockenbach","","50.71739","9.889703","1630","","0","","",""
"1057","","Rasdorf Vockenbach","","50.717447","9.889457","1630","","0","","",""
"1058","","Reckrod","","50.774125","9.795318","1653","","0","","",""
"1059","","Reulbach","","50.520512","9.96943","1740","","0","","",""
"1060","","Rimmels","","50.631877","9.823183","1648","","0","","",""
"1061","","Rimmels","","50.63181","9.823003","1648","","0","","",""
"1062","","Rothemann Barbarastraße","","50.466183","9.706208","1802","","0","","",""
"1063","","Rothemann Barbarastraße","","50.466388","9.70625","1802","","0","","",""
"1064","","Rothemann Hattenhofer Straße","","50.46426","9.705805","1802","","0","","",""
"1065","","Rothemann Hattenhofer Straße","","50.46428","9.705813","1802","","0","","",""
"1066","","Rodges TP-West/Böcklerstraße","","50.553442","9.596152","2001","","0","","",""
"1067","","Rodges TP-West/Dieselstraße","","50.552628","9.598835","2001","","0","","",""
"1068","","Rodges","","50.553893","9.606743","2001","","0","","",""
"1069","","Rodges","","50.553995","9.606387","2001","","0","","",""
"1070","","Rodges TP-West/Heinkelstraße","","50.557187","9.590612","2001","","0","","",""
"1071","","Rodholz","","50.489025","9.891395","1801","","0","","",""
"1072","","Rodges TP-West/Karrystraße","","50.560258","9.599363","2001","","0","","",""
"1073","","Rodges TP-West/Kruppstraße","","50.559113","9.593775","2001","","0","","",""
"1074","","Rodges TP-West/Schleyerstraße","","50.557232","9.601023","2001","","0","","",""
"1075","","Rodholz Schwarzerden","","50.481768","9.909078","1801","","0","","",""
"1076","","Rommerz Egerstraße","","50.452018","9.58553","1920","","0","","",""
"1077","","Rommerz Egerstraße","","50.452485","9.586468","1920","","0","","",""
"1078","","Rommerz Hainweg","","50.451982","9.570065","1920","","0","","",""
"1079","","Rommerz Hainweg","","50.45194","9.571","1920","","0","","",""
"1080","","Rommerz Maigrabenstraße","","50.450747","9.577335","1920","","0","","",""
"1081","","Rommersrain","","50.597485","9.985542","1740","","0","","",""
"1082","","Rommersrain","","50.597708","9.985607","1740","","0","","",""
"1083","","Rommerz Ortsmitte","","50.450745","9.576435","1920","","0","","",""
"1084","","Rommerz Ortsmitte","","50.450667","9.57702","1920","","0","","",""
"1085","","Rothenkirchen Bornfeldstraße","","50.719825","9.699162","1650","","0","","",""
"1086","","Rothenkirchen Bornfeldstraße","","50.719715","9.69893","1650","","0","","",""
"1087","","Roßbach","","50.707178","9.777102","1645","","0","","",""
"1088","","Roßbach","","50.707118","9.777073","1645","","0","","",""
"1089","","Rothenkirchen Ortsmitte","","50.721723","9.705005","1650","","0","","",""
"1090","","Rothenkirchen Ortsmitte","","50.721733","9.704965","1650","","0","","",""
"1091","","Rudolphshan Abzweig","","50.65862","9.698052","1601","","0","","",""
"1092","","Rudolphshan Abzweig","","50.65834","9.699087","1601","","0","","",""
"1093","","Rudolphshan Ortsmitte","","50.663388","9.699082","1601","","0","","",""
"1094","","Rückers Eckenheim","","50.406883","9.577477","1925","","0","","",""
"1095","","Rückers Eckenheim","","50.406948","9.577502","1925","","0","","",""
"1096","","Rückers Keutzelbuch","","50.396447","9.562852","1925","","0","","",""
"1097","","Rückers Keutzelbuch","","50.396558","9.562717","1925","","0","","",""
"1098","","Rückers Keutzelbuch","","50.396669","9.564711","1925","","0","","",""
"1099","","Rückers Kirche","","50.644515","9.745045","1645","","0","","",""
"1100","","Rückers Kirche","","50.64455","9.745038","1645","","0","","",""
"1101","","Rückers Leimenhof","","50.402657","9.55471","1925","","0","","",""
"1102","","Rückers Leimenhof","","50.402608","9.554692","1925","","0","","",""
"1103","","Rückers Ortsmitte","","50.406892","9.580152","1925","","0","","",""
"1104","","Rückers Ortsmitte","","50.406933","9.58015","1925","","0","","",""
"1105","","Rückers Schule","","50.405375","9.578017","1925","","0","","",""
"1106","","Rückers Schule","","50.405343","9.577877","1925","","0","","",""
"1107","","Sandberg","","50.456927","9.942208","1847","","0","","",""
"1108","","Sandberg","","50.456902","9.942217","1847","","0","","",""
"1109","","Sandenhof","","50.577858","9.995848","1740","","0","","",""
"1110","","Sandenhof","","50.578022","9.995777","1740","","0","","",""
"1111","","Sargenzell Abzweig","","50.658605","9.737045","1645","","0","","",""
"1112","","Sargenzell Abzweig","","50.658142","9.739123","1645","","0","","",""
"1113","","Sargenzell Ortsmitte","","50.662828","9.739132","1645","","0","","",""
"1114","","Sargenzell Praforst","","50.658207","9.723592","1645","","0","","",""
"1115","","Sargenzell Praforst","","50.658308","9.724448","1645","","0","","",""
"1116","","Schachen","","50.465638","9.918028","1847","","0","","",""
"1117","","Kleinsassen Schackau","","50.565407","9.871357","1701","","0","","",""
"1118","","Kleinsassen Schackau","","50.565447","9.871335","1701","","0","","",""
"1119","","Seiferts Ulsterstraße","","50.525102","10.015053","1747","","0","","",""
"1120","","Seiferts Ulsterstraße","","50.523722","10.016635","1747","","0","","",""
"1121","","Seiferts Wiesenweg","","50.528038","10.013615","1747","","0","","",""
"1122","","Seiferts Wiesenweg","","50.527992","10.013638","1747","","0","","",""
"1123","","Setzelbach","","50.692793","9.907547","1630","","0","","",""
"1124","","Sickels Bürgerhaus","","50.534181","9.648317","2001","","0","","",""
"1125","","Sickels Bürgerhaus","","50.534125","9.648215","2001","","0","","",""
"1126","","Sickels Günther-Groenhoff-Straße","","50.53632","9.64756","2001","","0","","",""
"1127","","Sickels Günther-Groenhoff-Straße","","50.536258","9.647398","2001","","0","","",""
"1128","","Sickels An der Mariengrotte","","50.53506","9.641235","2001","","0","","",""
"1129","","Sickels An der Mariengrotte","","50.534982","9.641058","2001","","0","","",""
"1130","","Sickels Sägewerk","","50.535453","9.642797","2001","","0","","",""
"1131","","Sickels Sägewerk","","50.535508","9.643097","2001","","0","","",""
"1132","","Sickels An der Schindhohle","","50.536872","9.654433","2001","","0","","",""
"1133","","Sickels An der Schindhohle","","50.53697","9.654601","2001","","0","","",""
"1134","","Silges Oberdorf","","50.63597","9.816128","1648","","0","","",""
"1135","","Silges Oberdorf","","50.635923","9.816248","1648","","0","","",""
"1136","","Silges Unterdorf","","50.637437","9.811078","1648","","0","","",""
"1137","","Silges Unterdorf","","50.63751","9.811177","1648","","0","","",""
"1138","","Simmershausen Oberdorf","","50.590592","10.028503","1740","","0","","",""
"1139","","Simmershausen Oberdorf","","50.591032","10.02922","1740","","0","","",""
"1140","","Simmershausen Unterdorf","","50.593275","10.032263","1740","","0","","",""
"1141","","Simmershausen Unterdorf","","50.593322","10.032435","1740","","0","","",""
"1142","","Schlitzenhausen Sinswinden","","50.671125","9.994062","1710","","0","","",""
"1143","","Schlitzenhausen Tanner Straße","","50.663855","10.004663","1710","","0","","",""
"1144","","Schlitzenhausen Tanner Straße","","50.663933","10.005127","1710","","0","","",""
"1145","","Schlitzenhausen Tanner Straße","","50.663505","10.005985","1710","","0","","",""
"1146","","Schlotzau Am Küppel","","50.688757","9.644328","1613","","0","","",""
"1147","","Schlotzau Bergstraße","","50.690812","9.643587","1613","","0","","",""
"1148","","Schletzenhausen","","50.520672","9.491148","2101","","0","","",""
"1149","","Schletzenhausen","","50.52061","9.491037","2101","","0","","",""
"1150","","Schlitzenhausen Schilfweg","","50.662542","9.99963","1710","","0","","",""
"1151","","Schlitzenhausen Schilfweg","","50.662323","9.99926","1710","","0","","",""
"1152","","Schmalnau Abzw. Stellberg","","50.43664","9.801997","1806","","0","","",""
"1153","","Schmalnau Abzw. Stellberg","","50.436738","9.801817","1806","","0","","",""
"1154","","Schmalnau Bahnhof","","50.45611","9.788029","1806","","0","","",""
"1155","","Schmalnau Bahnhof","","50.456084","9.788076","1806","","0","","",""
"1156","","Schmalnau Hauptstraße","","50.452832","9.792565","1806","","0","","",""
"1157","","Schmalnau Hauptstraße","","50.452717","9.792568","1806","","0","","",""
"1158","","Schmalnau Haus Helfrich","","50.433353","9.807227","1806","","0","","",""
"1159","","Schmalnau Haus Helfrich","","50.433348","9.807192","1806","","0","","",""
"1160","","Soisdorf","","50.764288","9.894915","1658","","0","","",""
"1161","","Soisdorf","","50.76423","9.895067","1658","","0","","",""
"1162","","Schachen Sommerberg","","50.476433","9.90957","1847","","0","","",""
"1163","","Sonnenküppel","","50.64597","10.033077","1710","","0","","",""
"1164","","Sonnenküppel","","50.646177","10.033063","1710","","0","","",""
"1165","","Steinbach Am Ring","","50.732485","9.74519","1650","","0","","",""
"1166","","Steinbach Am Ring","","50.732662","9.745288","1650","","0","","",""
"1167","","Elters Steens","","50.568258","9.90582","1701","","0","","",""
"1168","","Elters Steens","","50.568305","9.9057","1701","","0","","",""
"1169","","Steinbach Grundmühle","","50.724542","9.734803","1650","","0","","",""
"1170","","Steinbach Grundmühle","","50.724517","9.734723","1650","","0","","",""
"1171","","Steinbach Kreuzgasse","","50.729777","9.743622","1650","","0","","",""
"1172","","Steinbach Kreuzgasse","","50.729713","9.743443","1650","","0","","",""
"1173","","Stork Oberstork DGH","","50.418972","9.48804","1925","","0","","",""
"1174","","Stork Unterstork","","50.418112","9.500262","1925","","0","","",""
"1175","","Stork Unterstork","","50.418093","9.50048","1925","","0","","",""
"1176","","Struth Bildstock","","50.419793","9.538155","1925","","0","","",""
"1177","","Struth Weiherweg","","50.41728","9.53939","1925","","0","","",""
"1178","","Steinwand Grabenhöfchen","","50.521025","9.905198","1820","","0","","",""
"1179","","Steinwand Grabenhöfchen","","50.52072","9.904613","1820","","0","","",""
"1180","","Steinwand Kreuzung","","50.512003","9.869482","1820","","0","","",""
"1181","","Steinwand Kreuzung","","50.511838","9.8702","1820","","0","","",""
"1182","","Steinwand Leimbachshof","","50.49266","9.843142","1801","","0","","",""
"1183","","Steinwand Leimbachshof","","50.492662","9.843028","1801","","0","","",""
"1184","","Steinwand Mittelberg","","50.514875","9.895897","1820","","0","","",""
"1185","","Steinwand Mittelberg","","50.514793","9.895953","1820","","0","","",""
"1186","","Steinwand Remerz","","50.490227","9.831848","1801","","0","","",""
"1187","","Steinwand Remerz","","50.490095","9.831347","1801","","0","","",""
"1188","","Stöckels","","50.570312","9.736565","2035","","0","","",""
"1189","","Stöckels","","50.570365","9.736777","2035","","0","","",""
"1190","","Schwarzbach","","50.60872","9.900043","1725","","0","","",""
"1191","","Schwarzbach","","50.608655","9.900292","1725","","0","","",""
"1192","","Schwarzenborn","","50.620343","9.9639","1713","","0","","",""
"1193","","Schwarzenborn","","50.620362","9.963443","1713","","0","","",""
"1194","","Schweben Sportplatz","","50.426887","9.598217","1925","","0","","",""
"1195","","Schweben Sportplatz","","50.426487","9.597747","1925","","0","","",""
"1196","","Tann Hasenmühle-B278","","50.651398","10.017755","1710","","0","","",""
"1197","","Tann Hasenmühle-B278","","50.651592","10.016682","1710","","0","","",""
"1198","","Tann Marktstraße","","50.642703","10.022897","1710","","0","","",""
"1199","","Tann Marktstraße","","50.642843","10.023032","1710","","0","","",""
"1200","","Tann Rhönhalle","","50.640652","10.024618","1710","","0","","",""
"1201","","Tann Rhönstraße","","50.64828","10.02162","1710","","0","","",""
"1202","","Tann Rhönstraße","","50.648635","10.02153","1710","","0","","",""
"1203","","Tann Stadttor","","50.640328","10.022108","1710","","0","","",""
"1204","","Tann Stadttor","","50.64024","10.021992","1710","","0","","",""
"1205","","Thalau Bonifatiusstraße","","50.440095","9.772957","1806","","0","","",""
"1206","","Thaiden","","50.540973","10.015012","1747","","0","","",""
"1207","","Thaiden","","50.540797","10.015087","1747","","0","","",""
"1208","","Theobaldshof Dermbacher Straße","","50.669505","10.039085","1710","","0","","",""
"1209","","Theobaldshof Dermbacher Straße","","50.669515","10.038063","1710","","0","","",""
"1210","","Theobaldshof DGH","","50.666983","10.04264","1710","","0","","",""
"1211","","Theobaldshof DGH","","50.667072","10.042363","1710","","0","","",""
"1212","","Tiefengruben Feuerwehrhaus","","50.473147","9.647143","1934","","0","","",""
"1213","","Tiefengruben Kasseler Straße","","50.47303","9.647857","1934","","0","","",""
"1214","","Tiefengruben Kasseler Straße","","50.473065","9.648127","1934","","0","","",""
"1215","","Traisbach","","50.59167","9.786683","2068","","0","","",""
"1216","","Traisbach","","50.591605","9.786697","2068","","0","","",""
"1217","","Treischfeld","","50.756333","9.890635","1658","","0","","",""
"1218","","Treischfeld","","50.75674","9.891245","1658","","0","","",""
"1219","","Unterbernhards Am Michaelshof","","50.591973","9.953318","1728","","0","","",""
"1220","","Unterbernhards Am Michaelshof","","50.59206","9.953342","1728","","0","","",""
"1221","","Dassen Unterdassen","","50.508945","9.773205","2077","","0","","",""
"1222","","Dassen Unterdassen","","50.508963","9.773072","2077","","0","","",""
"1223","","Uffhausen Am Kirchberg","","50.57132","9.527627","2109","","0","","",""
"1224","","Uffhausen Am Kirchberg","","50.571217","9.527602","2109","","0","","",""
"1225","","Uffhausen","","50.579895","9.5307","2109","","0","","",""
"1226","","Uffhausen","","50.579702","9.530733","2109","","0","","",""
"1227","","Ufhausen Abt-Sauer-Straße","","50.772718","9.859572","1658","","0","","",""
"1228","","Ufhausen Abt-Sauer-Straße","","50.772697","9.859527","1658","","0","","",""
"1229","","Ufhausen Vor dem Tor","","50.776342","9.863217","1658","","0","","",""
"1230","","Ufhausen Unterufhausen","","50.77003","9.87793","1658","","0","","",""
"1231","","Ufhausen Unterufhausen","","50.769885","9.878473","1658","","0","","",""
"1232","","Unterrupsroth","","50.553007","9.933443","1728","","0","","",""
"1233","","Unterrückersbach","","50.610968","9.983633","1713","","0","","",""
